{"type": "FeatureCollection","features": [
{"type": "Feature","properties": {"id":1001,"name":"1001 - TERREAUX / TERME","partof1":21.10187496,"util1":6.7632642648285,"partof2":5.32154928,"util2":1.70558512678,"partof3":25.89371368,"util3":8.2990743120035,"partof4":11.1032479,"util4":3.5586505885353,"partof5":15.34567619,"util5":4.9183716419603,"partof6":21.233938,"util6":6.8055911784715},"geometry": {"type": "Point","coordinates":[4.832114,45.767736]}},
{"type": "Feature","properties": {"id":1002,"name":"1002 - OPÉRA","partof1":28.97195161,"util1":27.128679091825,"partof2":10.04173213,"util2":9.4028504585384,"partof3":18.51168274,"util3":17.333920312424,"partof4":7.79061431,"util4":7.2949547337785,"partof5":11.07924079,"util5":10.374350061707,"partof6":23.60477843,"util6":22.102979726091},"geometry": {"type": "Point","coordinates":[4.836306,45.767524]}},
{"type": "Feature","properties": {"id":1003,"name":"1003 - PLACE SATHONAY","partof1":17.54732965,"util1":3.2091538360389,"partof2":21.38845614,"util2":3.9116405423335,"partof3":24.43744259,"util3":4.4692562455325,"partof4":8.77978399,"util4":1.6056960251557,"partof5":9.24792713,"util5":1.6913126621889,"partof6":18.5990605,"util6":3.4015002590605},"geometry": {"type": "Point","coordinates":[4.830127,45.769289]}},
{"type": "Feature","properties": {"id":1005,"name":"1005 - MEISSONNIER","partof1":27.47096042,"util1":6.0734537693234,"partof2":0,"util2":0,"partof3":41.54709614,"util3":9.1854949298465,"partof4":7.38017452,"util4":1.631655685548,"partof5":10.23937844,"util5":2.2637865815813,"partof6":13.36239047,"util6":2.954241843984},"geometry": {"type": "Point","coordinates":[4.832849,45.766073]}},
{"type": "Feature","properties": {"id":1006,"name":"1006- SUBSISTANCES","partof1":44.84624327,"util1":5.140380745574,"partof2":8.54410193,"util2":0.97934484243799,"partof3":5.40429977,"util3":0.61945341360626,"partof4":10.90241281,"util4":1.2496599224915,"partof5":19.18395808,"util5":2.1989099096802,"partof6":11.11898414,"util6":1.274483832224},"geometry": {"type": "Point","coordinates":[4.819845,45.76791]}},
{"type": "Feature","properties": {"id":1012,"name":"1012 - AMPÈRE / BOURSE","partof1":26.59275957,"util1":7.0705654974552,"partof2":19.28469618,"util2":5.1274749083595,"partof3":27.00090042,"util3":7.1790832541218,"partof4":0,"util4":0,"partof5":11.62843025,"util5":3.0918031465966,"partof6":15.49321358,"util6":4.1193837403409},"geometry": {"type": "Point","coordinates":[4.836906,45.765789]}},
{"type": "Feature","properties": {"id":1013,"name":"1013 - MARTINIÈRE","partof1":17.42737589,"util1":3.0415017149021,"partof2":7.06790175,"util2":1.2335210664573,"partof3":28.13031889,"util3":4.9094260481163,"partof4":16.2963608,"util4":2.8441120242495,"partof5":15.06704707,"util5":2.6295668258474,"partof6":16.01099559,"util6":2.7943088421142},"geometry": {"type": "Point","coordinates":[4.827533,45.768223]}},
{"type": "Feature","properties": {"id":1016,"name":"1016 - PÊCHERIE","partof1":28.13171489,"util1":3.5941583061589,"partof2":0,"util2":0,"partof3":35.60079659,"util3":4.5484215686868,"partof4":18.94987146,"util4":2.4210695357507,"partof5":0.07629861,"util5":0.0097480471401109,"partof6":17.24131845,"util6":2.2027817414795},"geometry": {"type": "Point","coordinates":[4.831089,45.765944]}},
{"type": "Feature","properties": {"id":1020,"name":"1020 - TERREAUX / CHENAVARD","partof1":25.59553602,"util1":5.4958564971772,"partof2":0,"util2":0,"partof3":38.65754352,"util3":8.3005220735871,"partof4":10.87837584,"util4":2.3357976364427,"partof5":0,"util5":0,"partof6":24.86854462,"util6":5.339757386537},"geometry": {"type": "Point","coordinates":[4.832942,45.766763]}},
{"type": "Feature","properties": {"id":1021,"name":"1021 - TERREAUX / BEAUX ARTS","partof1":21.78961226,"util1":5.618175427277,"partof2":2.73969072,"util2":0.70639453780913,"partof3":28.63761293,"util3":7.3838456297155,"partof4":18.86096108,"util4":4.8630598291557,"partof5":10.52631374,"util5":2.7140766200067,"partof6":17.44580926,"util6":4.4981808636137},"geometry": {"type": "Point","coordinates":[4.834267,45.766832]}},
{"type": "Feature","properties": {"id":1022,"name":"1022 - PLACE TOLOZAN","partof1":41.33315135,"util1":19.885314531435,"partof2":8.2762791,"util2":3.9817049433237,"partof3":24.99389344,"util3":12.024523081025,"partof4":5.16770688,"util4":2.4861757054259,"partof5":2.46712596,"util5":1.1869304444716,"partof6":17.76184328,"util6":8.5451950491275},"geometry": {"type": "Point","coordinates":[4.837495,45.769508]}},
{"type": "Feature","properties": {"id":1023,"name":"1023 - CROIX ROUSSE / PERFETTI","partof1":34.38634831,"util1":1.1366359791599,"partof2":11.41060296,"util2":0.37717589990422,"partof3":30.15101247,"util3":0.99663753977428,"partof4":8.60491854,"util4":0.28443439012858,"partof5":9.66550072,"util5":0.31949178714486,"partof6":5.781617,"util6":0.1911105488922},"geometry": {"type": "Point","coordinates":[4.819389,45.772229]}},
{"type": "Feature","properties": {"id":1024,"name":"1024 - ROUVILLE","partof1":35.3171588,"util1":1.2225185194228,"partof2":28.66951725,"util2":0.99240757104831,"partof3":7.79556383,"util3":0.26984676784128,"partof4":2.07049081,"util4":0.071670922733446,"partof5":8.04752318,"util5":0.27856844823639,"partof6":18.09974612,"util6":0.62653043394166},"geometry": {"type": "Point","coordinates":[4.824607,45.769684]}},
{"type": "Feature","properties": {"id":1031,"name":"1031 - PLACE DE LA PAIX","partof1":27.98181251,"util1":8.5253942502688,"partof2":12.06866948,"util2":3.6770371953717,"partof3":32.34228247,"util3":9.8539259710846,"partof4":1.45415319,"util4":0.44304596925612,"partof5":0,"util5":0,"partof6":26.15308234,"util6":7.968223564094},"geometry": {"type": "Point","coordinates":[4.831733,45.768023]}},
{"type": "Feature","properties": {"id":1032,"name":"1032 - PIZAY","partof1":29.55638847,"util1":12.766128658075,"partof2":5.87924463,"util2":2.5393898660879,"partof3":19.29042279,"util3":8.3320064444192,"partof4":5.56886506,"util4":2.4053293218682,"partof5":7.95838502,"util5":3.4374215638334,"partof6":31.74669403,"util6":13.712175317593},"geometry": {"type": "Point","coordinates":[4.836334,45.767165]}},
{"type": "Feature","properties": {"id":1034,"name":"1034 - CARMÉLITES","partof1":32.54031407,"util1":5.068830780355,"partof2":19.99926821,"util2":3.1153020241093,"partof3":30.26873836,"util3":4.7149856129732,"partof4":0,"util4":0,"partof5":0,"util5":0,"partof6":17.19167937,"util6":2.6779616622382},"geometry": {"type": "Point","coordinates":[4.829274,45.770006]}},
{"type": "Feature","properties": {"id":1035,"name":"1035 - QUAI LASSAGNE","partof1":35.4969312,"util1":4.5085097761983,"partof2":16.05720587,"util2":2.0394458674592,"partof3":19.99774385,"util3":2.5399385412121,"partof4":12.83232061,"util4":1.6298491437337,"partof5":2.95463838,"util5":0.37527232836851,"partof6":12.66116009,"util6":1.6081098313022},"geometry": {"type": "Point","coordinates":[4.837917,45.772191]}},
{"type": "Feature","properties": {"id":1036,"name":"1036 - AVEYRON","partof1":22.45460858,"util1":1.6144657990939,"partof2":19.44449509,"util2":1.3980413950041,"partof3":14.88107083,"util3":1.0699353686498,"partof4":11.99982617,"util4":0.86277651545407,"partof5":21.22929586,"util5":1.5263669363332,"partof6":9.99070348,"util6":0.71832243344982},"geometry": {"type": "Point","coordinates":[4.832716,45.774366]}},
{"type": "Feature","properties": {"id":2001,"name":"2001 - BELLECOUR / RÉPUBLIQUE","partof1":16.96720646,"util1":10.509494309139,"partof2":5.77700295,"util2":3.5782778838717,"partof3":50.60679216,"util3":31.345866832181,"partof4":13.75246597,"util4":8.5182827938747,"partof5":2.45748665,"util5":1.5221681909657,"partof6":10.4390458,"util6":6.4659490462721},"geometry": {"type": "Point","coordinates":[4.834594,45.758]}},
{"type": "Feature","properties": {"id":2002,"name":"2002 - BELLECOUR / ST EXUPÉRY","partof1":19.99211858,"util1":4.9560354580276,"partof2":4.26525501,"util2":1.0573544260705,"partof3":33.47654836,"util3":8.2988183578759,"partof4":12.25683938,"util4":3.0384638990386,"partof5":20.78951013,"util5":5.1537083949861,"partof6":9.21972854,"util6":2.2855657530633},"geometry": {"type": "Point","coordinates":[4.830428,45.758149]}},
{"type": "Feature","properties": {"id":2003,"name":"2003 - PLACE AMPÈRE","partof1":35.53877712,"util1":7.2281664579337,"partof2":10.27898076,"util2":2.0906229750197,"partof3":14.51670182,"util3":2.9525252605301,"partof4":9.75128139,"util4":1.9832951715552,"partof5":19.71968696,"util5":4.0107508303939,"partof6":10.19457194,"util6":2.0734552205014},"geometry": {"type": "Point","coordinates":[4.828297,45.753049]}},
{"type": "Feature","properties": {"id":2004,"name":"2004 - PERRACHE / CARNOT","partof1":16.51593212,"util1":4.7586255230472,"partof2":19.2592998,"util2":5.5490537814283,"partof3":24.14978916,"util3":6.9581179093018,"partof4":12.03171627,"util4":3.4666182757649,"partof5":9.89025566,"util5":2.8496134926679,"partof6":18.15300699,"util6":5.2303050021659},"geometry": {"type": "Point","coordinates":[4.82801,45.750116]}},
{"type": "Feature","properties": {"id":2005,"name":"2005 - CONFLUENCE HÔTEL DE RÉGION","partof1":13.52663437,"util1":5.0719895564436,"partof2":4.15148537,"util2":1.5566540696234,"partof3":46.88089464,"util3":17.578608359384,"partof4":27.3764053,"util4":10.265143418271,"partof5":0,"util5":0,"partof6":8.06458033,"util6":3.0239205179951},"geometry": {"type": "Point","coordinates":[4.819284,45.740675]}},
{"type": "Feature","properties": {"id":2006,"name":"2006 - PLACE DE L'HIPPODROME","partof1":29.94568324,"util1":5.567411356978,"partof2":15.5948888,"util2":2.8993548191933,"partof3":19.02281966,"util3":3.5366654141109,"partof4":12.26312068,"util4":2.2799225116569,"partof5":10.567531,"util5":1.9646835783673,"partof6":12.60595661,"util6":2.3436615365763},"geometry": {"type": "Point","coordinates":[4.82359,45.745528]}},
{"type": "Feature","properties": {"id":2007,"name":"2007 - PATINOIRE CHARLEMAGNE","partof1":28.96437889,"util1":6.2844188247876,"partof2":11.90631355,"util2":2.5833200598434,"partof3":27.30504742,"util3":5.9243926710684,"partof4":10.81824954,"util4":2.3472421528051,"partof5":6.99680365,"util5":1.518100724286,"partof6":14.00920696,"util6":3.0395861162472},"geometry": {"type": "Point","coordinates":[4.820464,45.742617]}},
{"type": "Feature","properties": {"id":2008,"name":"2008 - PLACE ANTONIN PONCET","partof1":13.36987108,"util1":5.9204341690864,"partof2":12.21030241,"util2":5.406955023761,"partof3":40.48662583,"util3":17.928250879959,"partof4":12.84727282,"util4":5.6890176822186,"partof5":13.2207346,"util5":5.8543936884591,"partof6":7.86519326,"util6":3.4828577361998},"geometry": {"type": "Point","coordinates":[4.833917,45.756775]}},
{"type": "Feature","properties": {"id":2009,"name":"2009 - CONFLUENCE DOCKS","partof1":37.36559646,"util1":3.8620144536597,"partof2":20.66607941,"util2":2.1359942017074,"partof3":0,"util3":0,"partof4":27.864146,"util4":2.8799683341355,"partof5":2.64927642,"util5":0.27382257464384,"partof6":11.45490171,"util6":1.1839499475575},"geometry": {"type": "Point","coordinates":[4.814984,45.739652]}},
{"type": "Feature","properties": {"id":2011,"name":"2011 - SALA / RUE DU PLAT","partof1":33.39661643,"util1":5.381200637494,"partof2":17.91457032,"util2":2.8865767712869,"partof3":15.42766765,"util3":2.4858618587077,"partof4":5.34273172,"util4":0.86087497510069,"partof5":24.22679864,"util5":3.9036668447914,"partof6":3.69161525,"util6":0.59483038883058},"geometry": {"type": "Point","coordinates":[4.828342,45.756813]}},
{"type": "Feature","properties": {"id":2012,"name":"2012 - GAILLETON","partof1":33.54716194,"util1":7.238914059167,"partof2":12.63691389,"util2":2.7268337567993,"partof3":23.20096949,"util3":5.0063795121581,"partof4":8.59602718,"util4":1.8548782790501,"partof5":10.01295711,"util5":2.1606279579492,"partof6":12.00597039,"util6":2.5906867473783},"geometry": {"type": "Point","coordinates":[4.833367,45.753455]}},
{"type": "Feature","properties": {"id":2013,"name":"2013 - CÉLESTINS","partof1":39.10705423,"util1":7.2892083298399,"partof2":14.52622935,"util2":2.7075604149688,"partof3":0.27163957,"util3":0.050631208495351,"partof4":18.33576044,"util4":3.4176232489193,"partof5":19.1731468,"util5":3.5737046452502,"partof6":8.58616962,"util6":1.6003859239163},"geometry": {"type": "Point","coordinates":[4.832111,45.759932]}},
{"type": "Feature","properties": {"id":2014,"name":"2014 - JACOBINS","partof1":33.02755206,"util1":8.3070647364252,"partof2":0,"util2":0,"partof3":34.47051163,"util3":8.6699968283422,"partof4":10.01009695,"util4":2.5177319599854,"partof5":11.15537791,"util5":2.8057921546626,"partof6":11.33646145,"util6":2.8513381487086},"geometry": {"type": "Point","coordinates":[4.834305,45.760762]}},
{"type": "Feature","properties": {"id":2015,"name":"2015 - PLACE DE LA RÉPUBLIQUE","partof1":21.50358075,"util1":6.6429314719072,"partof2":3.04473713,"util2":0.94058660925862,"partof3":55.45259347,"util3":17.130532009686,"partof4":6.60987768,"util4":2.0419373394791,"partof5":6.62713641,"util5":2.0472689427137,"partof6":6.76207457,"util6":2.0889543234067},"geometry": {"type": "Point","coordinates":[4.836279,45.760698]}},
{"type": "Feature","properties": {"id":2016,"name":"2016 - PLACE REGAUD","partof1":36.18284422,"util1":10.728771601206,"partof2":1.02967859,"util2":0.30531558955379,"partof3":33.92594321,"util3":10.059565628464,"partof4":9.83653897,"util4":2.9166855793266,"partof5":10.56416161,"util5":3.1324369190765,"partof6":8.46083339,"util6":2.5087676481495},"geometry": {"type": "Point","coordinates":[4.83425,45.763065]}},
{"type": "Feature","properties": {"id":2017,"name":"2017 - RÉPUBLIQUE / FERRANDIÈRE","partof1":32.40071818,"util1":11.062745856465,"partof2":3.95013603,"util2":1.3487155054894,"partof3":41.13114962,"util3":14.043622505602,"partof4":6.83882458,"util4":2.3350154729653,"partof5":7.97966951,"util5":2.7245400956022,"partof6":7.69950208,"util6":2.6288810716839},"geometry": {"type": "Point","coordinates":[4.836023,45.762184]}},
{"type": "Feature","properties": {"id":2020,"name":"2020 - MUSEE DES CONFLUENCES","partof1":0,"util1":0,"partof2":0,"util2":0,"partof3":18.94434008,"util3":1.465500165789,"partof4":69.38910925,"util4":5.3678170197749,"partof5":11.66655067,"util5":0.90250343210008,"partof6":0,"util6":0},"geometry": {"type": "Point","coordinates":[4.818954,45.733388]}},
{"type": "Feature","properties": {"id":2022,"name":"2022 - PLACE CARNOT","partof1":23.72935737,"util1":7.3858841407158,"partof2":15.18115252,"util2":4.7252115549076,"partof3":23.58182291,"util3":7.3399632836385,"partof4":10.56218167,"util4":3.287533196598,"partof5":17.27730895,"util5":5.3776509906409,"partof6":9.66817658,"util6":3.0092695288133},"geometry": {"type": "Point","coordinates":[4.82688,45.751233]}},
{"type": "Feature","properties": {"id":2023,"name":"2023 -  HUGO / STE HÉLÈNE","partof1":30.89008322,"util1":8.2004211618338,"partof2":11.93256495,"util2":3.1677499032305,"partof3":20.01717452,"util3":5.3139792588078,"partof4":9.57363683,"util4":2.5415229055004,"partof5":19.34707354,"util5":5.1360868841638,"partof6":8.23946693,"util6":2.187339493189},"geometry": {"type": "Point","coordinates":[4.829927,45.754688]}},
{"type": "Feature","properties": {"id":2024,"name":"2024 - RÉPUBLIQUE / MAUPIN","partof1":25.5356682,"util1":4.5929346822258,"partof2":0.07472991,"util2":0.013441183240257,"partof3":42.05795912,"util3":7.5646917712489,"partof4":10.37877789,"util4":1.8667633271527,"partof5":10.7860193,"util5":1.9400111928979,"partof6":11.16684558,"util6":2.0085079408825},"geometry": {"type": "Point","coordinates":[4.834136,45.758733]}},
{"type": "Feature","properties": {"id":2025,"name":"2025 - MERCIÈRE / FERRANDIÈRE","partof1":30.77152927,"util1":4.8033898923039,"partof2":0,"util2":0,"partof3":19.4637861,"util3":3.0382680236128,"partof4":17.37318066,"util4":2.7119276278795,"partof5":15.68024835,"util5":2.4476634155013,"partof6":16.71125562,"util6":2.6086021149125},"geometry": {"type": "Point","coordinates":[4.833194,45.762054]}},
{"type": "Feature","properties": {"id":2026,"name":"2026 - RÉPUBLIQUE / PAUFIQUE","partof1":33.73077793,"util1":6.1721526134437,"partof2":0,"util2":0,"partof3":40.06100042,"util3":7.3304745284145,"partof4":9.45526756,"util4":1.7301514510686,"partof5":5.81575938,"util5":1.0641840081755,"partof6":10.93719471,"util6":2.0013186488957},"geometry": {"type": "Point","coordinates":[4.835414,45.759379]}},
{"type": "Feature","properties": {"id":2028,"name":"2028- SAINTE-BLANDINE","partof1":40.45172681,"util1":6.1184599675652,"partof2":12.16367613,"util2":1.8397969957969,"partof3":11.26207591,"util3":1.703426924904,"partof4":9.10935472,"util4":1.3778205920963,"partof5":13.14342102,"util5":1.9879867113076,"partof6":13.86974541,"util6":2.097845722384},"geometry": {"type": "Point","coordinates":[4.822152,45.744438]}},
{"type": "Feature","properties": {"id":2030,"name":"2030 - RÉPUBLIQUE / POULAILLERIE","partof1":30.97598798,"util1":15.018695672107,"partof2":8.65146637,"util2":4.1946600900153,"partof3":39.73755142,"util3":19.266736283505,"partof4":4.83427261,"util4":2.3438951865707,"partof5":7.07154056,"util5":3.4286336781953,"partof6":8.72918107,"util6":4.232340031953},"geometry": {"type": "Point","coordinates":[4.835554,45.764079]}},
{"type": "Feature","properties": {"id":2035,"name":"2035 - CHILDEBERT / RIVIÈRE","partof1":28.28578718,"util1":5.1783784494719,"partof2":1.16096688,"util2":0.21254228612006,"partof3":52.05555555,"util3":9.5299934670373,"partof4":7.71686226,"util4":1.4127530894025,"partof5":4.12481245,"util5":0.75514390896274,"partof6":6.65601569,"util6":1.2185401802363},"geometry": {"type": "Point","coordinates":[4.835776,45.759842]}},
{"type": "Feature","properties": {"id":2036,"name":"2036 - PLACE GOURJU","partof1":20.17170194,"util1":3.3056686812278,"partof2":0,"util2":0,"partof3":10.95946371,"util3":1.7959989720729,"partof4":41.0911915,"util4":6.7338822088448,"partof5":14.53540783,"util5":2.3820123148471,"partof6":13.24223502,"util6":2.1700916315975},"geometry": {"type": "Point","coordinates":[4.830161,45.759494]}},
{"type": "Feature","properties": {"id":2037,"name":"2037 - PLACE DES ARCHIVES","partof1":17.66993976,"util1":5.9130434478178,"partof2":29.66224844,"util2":9.9261325260842,"partof3":18.46361877,"util3":6.1786390601115,"partof4":4.99399466,"util4":1.6711832526785,"partof5":17.35653932,"util5":5.8081675714166,"partof6":11.85365905,"util6":3.9666915637673},"geometry": {"type": "Point","coordinates":[4.824898,45.747956]}},
{"type": "Feature","properties": {"id":2038,"name":"2038 - REMPARTS D'AINAY","partof1":35.46076954,"util1":9.8249464237173,"partof2":0.53240898,"util2":0.14751201882704,"partof3":31.56074019,"util3":8.7443838777902,"partof4":9.26934196,"util4":2.5682124026492,"partof5":9.73102568,"util5":2.6961289107381,"partof6":13.44571365,"util6":3.7253398037761},"geometry": {"type": "Point","coordinates":[4.829706,45.753077]}},
{"type": "Feature","properties": {"id":2039,"name":"2039 - CHARITÉ / RÉCAMMIER","partof1":21.84679024,"util1":3.624900935388,"partof2":10.08087802,"util2":1.6726568874783,"partof3":29.01397229,"util3":4.8141065180723,"partof4":9.50261521,"util4":1.5767093648518,"partof5":17.00097756,"util5":2.8208656183699,"partof6":12.55476668,"util6":2.0831337227097},"geometry": {"type": "Point","coordinates":[4.82984,45.749257]}},
{"type": "Feature","properties": {"id":2041,"name":"2041 - SALA / CHARITE","partof1":24.28639339,"util1":4.0210642380128,"partof2":21.00368471,"util2":3.4775507461167,"partof3":23.91156146,"util3":3.9590038388096,"partof4":2.78262158,"util4":0.46071476911297,"partof5":21.8971665,"util5":3.6254832783536,"partof6":6.11857236,"util6":1.0130434811543},"geometry": {"type": "Point","coordinates":[4.833041,45.754468]}},
{"type": "Feature","properties": {"id":2042,"name":"2042 - JOFFRE / VAUBECOUR","partof1":33.32307142,"util1":4.4307921033216,"partof2":16.13557518,"util2":2.1454618690157,"partof3":8.52699317,"util3":1.1337890654352,"partof4":3.19610612,"util4":0.42496928267466,"partof5":22.0871571,"util5":2.9368121572601,"partof6":16.73109701,"util6":2.2246452488567},"geometry": {"type": "Point","coordinates":[4.824763,45.751873]}},
{"type": "Feature","properties": {"id":3001,"name":"3001 - PART-DIEU / VIVIER MERLE","partof1":4.42982227,"util1":3.3866695310374,"partof2":38.49066899,"util2":29.426728196406,"partof3":38.73155606,"util3":29.610890189973,"partof4":6.54396567,"util4":5.0029657615911,"partof5":11.1383719,"util5":8.5154623458726,"partof6":0.66561509,"util6":0.50887331529482},"geometry": {"type": "Point","coordinates":[4.858454,45.76027]}},
{"type": "Feature","properties": {"id":3002,"name":"3002 - PART-DIEU / GARE SNCF","partof1":19.09681432,"util1":9.8917395346395,"partof2":47.32074234,"util2":24.511127875545,"partof3":23.30550241,"util3":12.071749544226,"partof4":8.9978349,"util4":4.6606851653406,"partof5":0,"util5":0,"partof6":1.27910603,"util6":0.66254944274636},"geometry": {"type": "Point","coordinates":[4.85873,45.760139]}},
{"type": "Feature","properties": {"id":3003,"name":"3003 - PART-DIEU / DERUELLE","partof1":5.66836689,"util1":2.7082561630942,"partof2":6.98313465,"util2":3.3364314308841,"partof3":61.05890726,"util3":29.172981408529,"partof4":5.54107349,"util4":2.6474373872878,"partof5":19.32908193,"util5":9.2351300259385,"partof6":1.41943578,"util6":0.67818399442055},"geometry": {"type": "Point","coordinates":[4.855071,45.762974]}},
{"type": "Feature","properties": {"id":3004,"name":"3004 - BOURSE DU TRAVAIL","partof1":40.71737951,"util1":22.363901406669,"partof2":13.12606543,"util2":7.2094529821574,"partof3":9.28566779,"util3":5.1001258295525,"partof4":8.65107343,"util4":4.7515767364856,"partof5":22.82651317,"util5":12.537395484072,"partof6":5.39330067,"util6":2.9622545923118},"geometry": {"type": "Point","coordinates":[4.848139,45.759648]}},
{"type": "Feature","properties": {"id":3005,"name":"3005 - SAXE-GAMBETTA","partof1":29.22028415,"util1":13.123029359802,"partof2":18.17507426,"util2":8.1625500938381,"partof3":26.58114481,"util3":11.937773841216,"partof4":3.33308493,"util4":1.4969112268233,"partof5":10.376775,"util5":4.6602805874856,"partof6":12.31363685,"util6":5.5301384845872},"geometry": {"type": "Point","coordinates":[4.848043,45.75377]}},
{"type": "Feature","properties": {"id":3007,"name":"3007 - PLACE D'ARSONVAL","partof1":3.97390614,"util1":1.5848003659371,"partof2":31.80472054,"util2":12.683775352157,"partof3":17.21355949,"util3":6.8647961018102,"partof4":6.52283879,"util4":2.6013189383835,"partof5":29.54657116,"util5":11.783221630532,"partof6":10.93840388,"util6":4.3622536268035},"geometry": {"type": "Point","coordinates":[4.87897,45.743396]}},
{"type": "Feature","properties": {"id":3008,"name":"3008 - INSTITUT LUMIERE","partof1":26.01976072,"util1":3.4616026462894,"partof2":21.87201871,"util2":2.9097976211608,"partof3":18.2962595,"util3":2.4340877298582,"partof4":9.97986746,"util4":1.327696129911,"partof5":9.56832715,"util5":1.2729458560141,"partof6":14.26376646,"util6":1.8976151339485},"geometry": {"type": "Point","coordinates":[4.870631,45.745828]}},
{"type": "Feature","properties": {"id":3009,"name":"3009 - MUSEE AFRICAIN","partof1":37.84421008,"util1":9.2757101315603,"partof2":23.31966798,"util2":5.7157086933365,"partof3":0,"util3":0,"partof4":0,"util4":0,"partof5":28.37673365,"util5":6.9552080823322,"partof6":10.45938828,"util6":2.5636221137561},"geometry": {"type": "Point","coordinates":[4.857919,45.750251]}},
{"type": "Feature","properties": {"id":3010,"name":"3010 - PART-DIEU / CUIRASSIERS","partof1":0,"util1":0,"partof2":5.28723549,"util2":3.234222086165,"partof3":77.22812581,"util3":47.240738688534,"partof4":2.98212418,"util4":1.8241767186055,"partof5":14.50251452,"util5":8.87124336607,"partof6":0,"util6":0},"geometry": {"type": "Point","coordinates":[4.855958,45.759376]}},
{"type": "Feature","properties": {"id":3012,"name":"3012 - PLACE DU CHÂTEAU","partof1":25.26889823,"util1":3.3996477091056,"partof2":28.02417852,"util2":3.7703398635709,"partof3":17.48145857,"util3":2.3519347792049,"partof4":5.8888486,"util4":0.79227873214082,"partof5":14.74522642,"util5":1.9838053389871,"partof6":8.59138967,"util6":1.1558754142661},"geometry": {"type": "Point","coordinates":[4.887311,45.749565]}},
{"type": "Feature","properties": {"id":3013,"name":"3013 - PLACE ANTOINETTE","partof1":15.31224308,"util1":1.4895773245925,"partof2":30.9807496,"util2":3.0138120105548,"partof3":33.45062337,"util3":3.2540817047581,"partof4":6.40632488,"util4":0.62320825403335,"partof5":3.79670445,"util5":0.36934398359222,"partof6":10.05335462,"util6":0.97799185918094},"geometry": {"type": "Point","coordinates":[4.889285,45.753683]}},
{"type": "Feature","properties": {"id":3015,"name":"3015 - SERVIENT / GARIBALDI","partof1":10.8989358,"util1":1.6219234946397,"partof2":13.23845992,"util2":1.9700794252861,"partof3":34.29587919,"util3":5.1037361122529,"partof4":8.06025581,"util4":1.1994857581458,"partof5":33.5064693,"util5":4.9862601979997,"partof6":0,"util6":0},"geometry": {"type": "Point","coordinates":[4.85276,45.760779]}},
{"type": "Feature","properties": {"id":3016,"name":"3016 - LIBERTÉ / PART-DIEU","partof1":34.17805172,"util1":13.587469441633,"partof2":7.10508194,"util2":2.8246222028963,"partof3":30.92671827,"util3":12.294903257394,"partof4":6.75372218,"util4":2.6849392847144,"partof5":14.96454496,"util5":5.9491482726314,"partof6":6.07188093,"util6":2.4138735954142},"geometry": {"type": "Point","coordinates":[4.842308,45.759361]}},
{"type": "Feature","properties": {"id":3018,"name":"3018 - CRÉQUI / VOLTAIRE","partof1":38.05067742,"util1":12.851073779182,"partof2":14.52388473,"util2":4.9052349887325,"partof3":18.92575818,"util3":6.3919049853838,"partof4":8.01159224,"util4":2.7058010512802,"partof5":9.04976629,"util5":3.0564295345767,"partof6":11.43832113,"util6":3.8631298762197},"geometry": {"type": "Point","coordinates":[4.848442,45.756596]}},
{"type": "Feature","properties": {"id":3021,"name":"3021 - PLACE DE LA FERRANDIÈRE","partof1":21.41167582,"util1":3.7222875865697,"partof2":27.38115575,"util2":4.760044800368,"partof3":23.20437506,"util3":4.0339372763745,"partof4":8.96013404,"util4":1.5576639582755,"partof5":11.56166232,"util5":2.0099235807432,"partof6":7.48099701,"util6":1.3005251218813},"geometry": {"type": "Point","coordinates":[4.869346,45.759488]}},
{"type": "Feature","properties": {"id":3024,"name":"3024 - ROCKEFELLER / ESQUIROL","partof1":22.54217367,"util1":1.182469229622,"partof2":35.87783245,"util2":1.8820027526502,"partof3":0,"util3":0,"partof4":0,"util4":0,"partof5":35.37863071,"util5":1.8558166933302,"partof6":6.20136316,"util6":0.32529787170305},"geometry": {"type": "Point","coordinates":[4.885538,45.741336]}},
{"type": "Feature","properties": {"id":3029,"name":"3029 - PLACE ARISTIDE BRIAND","partof1":20.61089149,"util1":7.0149340272711,"partof2":14.09601278,"util2":4.7975896504645,"partof3":38.00839772,"util3":12.936189713941,"partof4":8.91668505,"util4":3.0348011583125,"partof5":10.06344046,"util5":3.4251003140025,"partof6":8.3045725,"util6":2.8264681438188},"geometry": {"type": "Point","coordinates":[4.850271,45.752967]}},
{"type": "Feature","properties": {"id":3031,"name":"3031 - CORNEILLE / SERVIENT","partof1":35.9102315,"util1":7.1496245160373,"partof2":29.22422317,"util2":5.8184593557515,"partof3":0,"util3":0,"partof4":0,"util4":0,"partof5":31.96308743,"util5":6.3637594065015,"partof6":2.9024579,"util6":0.57787107717772},"geometry": {"type": "Point","coordinates":[4.844511,45.759906]}},
{"type": "Feature","properties": {"id":3032,"name":"3032 - LAFAYETTE / CRÉQUI","partof1":47.70465046,"util1":15.188378052041,"partof2":13.21629101,"util2":4.2078502278094,"partof3":22.39376177,"util3":7.1298063499135,"partof4":3.40522403,"util4":1.0841674641952,"partof5":10.75984324,"util5":3.4257575589376,"partof6":2.52022949,"util6":0.80239972210088},"geometry": {"type": "Point","coordinates":[4.847132,45.76341]}},
{"type": "Feature","properties": {"id":3037,"name":"3037 - PAUL BERT / GARIBALDI","partof1":40.16131576,"util1":14.07681375312,"partof2":25.7974183,"util2":9.0421702040482,"partof3":1.89138352,"util3":0.66294276078672,"partof4":2.85763152,"util4":1.0016192428175,"partof5":22.71755484,"util5":7.9626571579482,"partof6":6.57469606,"util6":2.3044755922109},"geometry": {"type": "Point","coordinates":[4.853405,45.757112]}},
{"type": "Feature","properties": {"id":3038,"name":"3038 - VIVIER MERLE / PAUL BERT","partof1":19.78474538,"util1":5.0057077081391,"partof2":27.94060772,"util2":7.0692097748944,"partof3":4.72813042,"util3":1.1962569360334,"partof4":0,"util4":0,"partof5":41.35470063,"util5":10.46308859353,"partof6":6.19181585,"util6":1.566581713963},"geometry": {"type": "Point","coordinates":[4.858911,45.757415]}},
{"type": "Feature","properties": {"id":3039,"name":"3039 - PLACE BIR-HAKEIM","partof1":38.95142488,"util1":11.56217321159,"partof2":33.83539092,"util2":10.043551723823,"partof3":15.19972878,"util3":4.5118220312855,"partof4":2.4030766,"util4":0.71331890875665,"partof5":8.23138662,"util5":2.4433693546567,"partof6":1.37899221,"util6":0.40933410879251},"geometry": {"type": "Point","coordinates":[4.855756,45.752553]}},
{"type": "Feature","properties": {"id":3043,"name":"3043 - PLACE ROUGET DE L'ISLE","partof1":16.27795272,"util1":4.7815786671719,"partof2":8.73795772,"util2":2.5667375343379,"partof3":39.44782934,"util3":11.587630366233,"partof4":12.75515067,"util4":3.7467707020245,"partof5":11.11465617,"util5":3.2648824916493,"partof6":11.66645338,"util6":3.4269705510831},"geometry": {"type": "Point","coordinates":[4.867336,45.753975]}},
{"type": "Feature","properties": {"id":3044,"name":"3044 - QUAI AUGAGNEUR","partof1":25.24522562,"util1":9.1765119307971,"partof2":0,"util2":0,"partof3":20.23799234,"util3":7.3564079386267,"partof4":28.8314429,"util4":10.480083788372,"partof5":0.67985862,"util5":0.24712517256105,"partof6":25.00548052,"util6":9.0893657985495},"geometry": {"type": "Point","coordinates":[4.841053,45.762023]}},
{"type": "Feature","properties": {"id":3051,"name":"3051 - PLACE HENRI","partof1":15.89541517,"util1":2.2408833186067,"partof2":30.13246584,"util2":4.2479758677068,"partof3":23.64710551,"util3":3.3336911118057,"partof4":4.56844122,"util4":0.64404380838409,"partof5":10.95704015,"util5":1.5446874605565,"partof6":14.79953211,"util6":2.0863893313762},"geometry": {"type": "Point","coordinates":[4.880641,45.748193]}},
{"type": "Feature","properties": {"id":3053,"name":"3053 - GAMBETTA / JUSSERAND","partof1":46.54355765,"util1":14.775063747316,"partof2":27.67037922,"util2":8.7838497426918,"partof3":4.02151036,"util3":1.2766121656687,"partof4":0.1306292,"util4":0.04146771013455,"partof5":17.14746706,"util5":5.4433939240677,"partof6":4.48645651,"util6":1.424207436683},"geometry": {"type": "Point","coordinates":[4.855604,45.751123]}},
{"type": "Feature","properties": {"id":3058,"name":"3058 - PLACE DU LAC","partof1":4.81746822,"util1":0.57377501973065,"partof2":30.12928417,"util2":3.5884887724515,"partof3":9.97751506,"util3":1.1883521881156,"partof4":1.92985065,"util4":0.22985104295736,"partof5":50.52570832,"util5":6.0177645112131,"partof6":2.62017359,"util6":0.31207059074278},"geometry": {"type": "Point","coordinates":[4.853599,45.758974]}},
{"type": "Feature","properties": {"id":3066,"name":"3066 - KIMMERLING / FAURE","partof1":42.27532486,"util1":10.694480581417,"partof2":44.59423974,"util2":11.281101505946,"partof3":0,"util3":0,"partof4":0,"util4":0,"partof5":8.0608712,"util5":2.0391760631808,"partof6":5.0695642,"util6":1.2824586463307},"geometry": {"type": "Point","coordinates":[4.86359,45.754296]}},
{"type": "Feature","properties": {"id":3067,"name":"3067 - HACHETTE","partof1":19.40607742,"util1":2.7610451479233,"partof2":36.31577978,"util2":5.1669126833062,"partof3":27.89759944,"util3":3.969196345323,"partof4":5.96263105,"util4":0.84834730755492,"partof5":6.67747476,"util5":0.95005337181007,"partof6":3.74043755,"util6":0.53217951907653},"geometry": {"type": "Point","coordinates":[4.863923,45.752907]}},
{"type": "Feature","properties": {"id":3071,"name":"3071 - BIOPARC","partof1":28.89200685,"util1":0.87246577728248,"partof2":25.11533115,"util2":0.75841969120576,"partof3":0,"util3":0,"partof4":1.18696757,"util4":0.035843428562982,"partof5":38.28585058,"util5":1.156136178377,"partof6":6.51984385,"util6":0.19688284935979},"geometry": {"type": "Point","coordinates":[4.888084,45.740492]}},
{"type": "Feature","properties": {"id":3079,"name":"3079 - PLACE LOUISE","partof1":11.44561124,"util1":0.75372731165202,"partof2":43.20211261,"util2":2.8449867387968,"partof3":22.58216279,"util3":1.4871021297238,"partof4":5.89550975,"util4":0.38823673297205,"partof5":7.80464905,"util5":0.51395919566843,"partof6":9.06995456,"util6":0.59728330134291},"geometry": {"type": "Point","coordinates":[4.884795,45.75118]}},
{"type": "Feature","properties": {"id":3080,"name":"3080 - PART-DIEU / VILLETTE","partof1":8.08103249,"util1":6.4247538564749,"partof2":54.51091188,"util2":43.338421390383,"partof3":20.09979787,"util3":15.980167638164,"partof4":1.2994776,"util4":1.0331382446902,"partof5":12.95059434,"util5":10.296256206434,"partof6":3.05818582,"util6":2.4313837576047},"geometry": {"type": "Point","coordinates":[4.861734,45.760042]}},
{"type": "Feature","properties": {"id":3082,"name":"3082 - PLACE BAHADOURIAN","partof1":29.86600379,"util1":7.0286387908603,"partof2":21.95348323,"util2":5.1665132339045,"partof3":14.5908141,"util3":3.4337892238475,"partof4":3.06331482,"util4":0.720917787457,"partof5":27.47213188,"util5":6.4652671029276,"partof6":3.05425218,"util6":0.71878499381311},"geometry": {"type": "Point","coordinates":[4.845111,45.757672]}},
{"type": "Feature","properties": {"id":3083,"name":"3083 - LES HALLES","partof1":40.17625019,"util1":7.4599233888532,"partof2":27.36916191,"util2":5.0819041125082,"partof3":15.66958951,"util3":2.9095283090524,"partof4":5.45670339,"util4":1.013200312438,"partof5":11.32829501,"util5":2.1034370430609,"partof6":0,"util6":0},"geometry": {"type": "Point","coordinates":[4.850477,45.761595]}},
{"type": "Feature","properties": {"id":3084,"name":"3084 - DESAIX","partof1":38.16359789,"util1":9.9785789185157,"partof2":31.28043774,"util2":8.1788493185045,"partof3":16.56821853,"util3":4.3320673437905,"partof4":0,"util4":0,"partof5":5.74997932,"util5":1.5034385015226,"partof6":8.23776652,"util6":2.1539165036027},"geometry": {"type": "Point","coordinates":[4.855193,45.757268]}},
{"type": "Feature","properties": {"id":3085,"name":"3085 - SACRE COEUR","partof1":17.2120956,"util1":3.3298185654879,"partof2":31.28866823,"util2":6.0530449506477,"partof3":23.50008076,"util3":4.5462799547263,"partof4":9.24825202,"util4":1.7891488631115,"partof5":10.52493302,"util5":2.0361330883215,"partof6":8.22597038,"util6":1.5913802436978},"geometry": {"type": "Point","coordinates":[4.868337,45.757864]}},
{"type": "Feature","properties": {"id":3086,"name":"3086 - FEUILLAT / LACASSAGNE","partof1":24.0688728,"util1":5.6803291960261,"partof2":33.29111346,"util2":7.8568068112876,"partof3":15.44527544,"util3":3.6451332703248,"partof4":5.12812876,"util4":1.2102544127621,"partof5":12.05871211,"util5":2.8458937414346,"partof6":10.00789743,"util6":2.3618950681589},"geometry": {"type": "Point","coordinates":[4.875934,45.749563]}},
{"type": "Feature","properties": {"id":3087,"name":"3087 - PART-DIEU / GARIBALDI","partof1":15.21299892,"util1":2.941723784667,"partof2":26.80217272,"util2":5.182711797049,"partof3":26.77471371,"util3":5.1774020732236,"partof4":4.24324782,"util4":0.82051297722241,"partof5":23.66351251,"util5":4.5757919227823,"partof6":3.30335432,"util6":0.63876662474163},"geometry": {"type": "Point","coordinates":[4.852563,45.762768]}},
{"type": "Feature","properties": {"id":3088,"name":"3088 - PLACE GUICHARD","partof1":53.95363746,"util1":12.331614925744,"partof2":24.28832495,"util2":5.5513267422754,"partof3":0,"util3":0,"partof4":3.6586345,"util4":0.83621557196193,"partof5":14.03380362,"util5":3.2075587547484,"partof6":4.06559947,"util6":0.92923127089469},"geometry": {"type": "Point","coordinates":[4.846453,45.75882]}},
{"type": "Feature","properties": {"id":3089,"name":"3089 - TRARIEUX / LACASSAGNE","partof1":11.32397621,"util1":1.332655062788,"partof2":44.56692028,"util2":5.244830158824,"partof3":17.03149688,"util3":2.0043410656362,"partof4":1.27877071,"util4":0.15049133177458,"partof5":20.5310885,"util5":2.416188318191,"partof6":5.26774742,"util6":0.61993156278025},"geometry": {"type": "Point","coordinates":[4.888964,45.745304]}},
{"type": "Feature","properties": {"id":3090,"name":"3090 - VINATIER","partof1":13.06356552,"util1":0.39876469962735,"partof2":37.00189417,"util2":1.1294810128026,"partof3":2.42292234,"util3":0.073959586121515,"partof4":7.51529553,"util4":0.22940402909475,"partof5":37.85389978,"util5":1.155488442446,"partof6":2.14242266,"util6":0.065397347085815},"geometry": {"type": "Point","coordinates":[4.893461,45.741865]}},
{"type": "Feature","properties": {"id":3091,"name":"3091 - HOPITAL NEUROLOGIQUE","partof1":0,"util1":0,"partof2":50.78505422,"util2":2.9404830013546,"partof3":0,"util3":0,"partof4":0,"util4":0,"partof5":49.21494578,"util5":2.8495728458174,"partof6":0,"util6":0},"geometry": {"type": "Point","coordinates":[4.896975,45.748286]}},
{"type": "Feature","properties": {"id":3094,"name":"3094 - VILLETTE","partof1":21.50938982,"util1":6.9862519140621,"partof2":27.21289411,"util2":8.8387506644369,"partof3":20.34164741,"util3":6.6069690652568,"partof4":0,"util4":0,"partof5":25.33681178,"util5":8.2293989404418,"partof6":5.59925688,"util6":1.8186391814264},"geometry": {"type": "Point","coordinates":[4.861512,45.757808]}},
{"type": "Feature","properties": {"id":3097,"name":"3097 - AUGAGNEUR / FOSSE AUX OURS","partof1":25.85872353,"util1":14.615254579049,"partof2":0,"util2":0,"partof3":21.03212237,"util3":11.887277514632,"partof4":27.81218864,"util4":15.719345810034,"partof5":7.64825173,"util5":4.3227634956118,"partof6":17.64871374,"util6":9.9749875125744},"geometry": {"type": "Point","coordinates":[4.840495,45.757192]}},
{"type": "Feature","properties": {"id":3099,"name":"3099 - PLACE SAINTE ANNE","partof1":41.74790208,"util1":11.822594097754,"partof2":32.10025829,"util2":9.0904765338507,"partof3":14.5649574,"util3":4.124652277408,"partof4":4.60987517,"util4":1.3054711796484,"partof5":5.61189935,"util5":1.5892345441781,"partof6":1.36510771,"util6":0.38658503903065},"geometry": {"type": "Point","coordinates":[4.86532,45.757042]}},
{"type": "Feature","properties": {"id":3100,"name":"3100 - SISLEY / DAUPHINE","partof1":24.98836788,"util1":10.181365296623,"partof2":33.11020299,"util2":13.490559819889,"partof3":24.8184424,"util3":10.112130147157,"partof4":4.16068516,"util4":1.6952469925858,"partof5":8.16597665,"util5":3.3271797372524,"partof6":4.75632491,"util6":1.9379369477306},"geometry": {"type": "Point","coordinates":[4.868748,45.752779]}},
{"type": "Feature","properties": {"id":3101,"name":"3101 - PATINOIRE BARABAN","partof1":28.66157276,"util1":8.0206542412604,"partof2":22.53125146,"util2":6.3051451885348,"partof3":14.07447978,"util3":3.9386022841892,"partof4":9.39412718,"util4":2.6288524583117,"partof5":15.60420512,"util5":4.3666806083961,"partof6":9.7343637,"util6":2.7240642427459},"geometry": {"type": "Point","coordinates":[4.868486,45.762055]}},
{"type": "Feature","properties": {"id":3102,"name":"3102 - DR LONG / AUBEPINS","partof1":12.46227446,"util1":0.63264069978229,"partof2":28.99389069,"util2":1.4718593587717,"partof3":32.88471157,"util3":1.6693748004474,"partof4":7.88450044,"util4":0.40025244924636,"partof5":0,"util5":0,"partof6":17.77462284,"util6":0.9023192249502},"geometry": {"type": "Point","coordinates":[4.894272,45.75254]}},
{"type": "Feature","properties": {"id":3103,"name":"3103 - PLACE DANTON","partof1":44.98682055,"util1":13.664324990617,"partof2":26.13628765,"util2":7.9386523459892,"partof3":8.99288053,"util3":2.731503152732,"partof4":3.74708155,"util4":1.1381408919227,"partof5":10.59687761,"util5":3.2187022283093,"partof6":5.54005211,"util6":1.6827388904236},"geometry": {"type": "Point","coordinates":[4.8574875686651,45.754850231301]}},
{"type": "Feature","properties": {"id":4001,"name":"4001 - CONSERVATOIRE BIS","partof1":35.9265026,"util1":2.7041104894318,"partof2":14.5512663,"util2":1.0952424808627,"partof3":7.22292988,"util3":0.54365437878549,"partof4":18.06802149,"util4":1.3599410713134,"partof5":18.71759646,"util5":1.4088331805623,"partof6":5.51368327,"util6":0.41500306700635},"geometry": {"type": "Point","coordinates":[4.814254,45.770392]}},
{"type": "Feature","properties": {"id":4002,"name":"4002 - MAIRIE DU 4°","partof1":23.08982109,"util1":1.1622136159687,"partof2":33.55980781,"util2":1.689214716478,"partof3":3.44084401,"util3":0.17319301623251,"partof4":6.03410873,"util4":0.30372358880159,"partof5":25.34289174,"util5":1.2756207046145,"partof6":8.53252661,"util6":0.4294800971434},"geometry": {"type": "Point","coordinates":[4.827743,45.774193]}},
{"type": "Feature","properties": {"id":4003,"name":"4003- PLACE COMMANDANT  ARNAUD","partof1":27.37398959,"util1":1.3126264080872,"partof2":27.60795814,"util2":1.3238455727757,"partof3":17.44759358,"util3":0.8366399064843,"partof4":6.06962459,"util4":0.29104816810918,"partof5":17.73107428,"util5":0.85023325763904,"partof6":3.76975982,"util6":0.18076598866267},"geometry": {"type": "Point","coordinates":[4.834708,45.779731]}},
{"type": "Feature","properties": {"id":4004,"name":"4004 - HÉNON","partof1":25.06039853,"util1":1.1668854370318,"partof2":12.29116608,"util2":0.57231263444284,"partof3":32.88347997,"util3":1.5311509850886,"partof4":7.68153767,"util4":0.35767485622402,"partof5":17.48679231,"util5":0.81423618473235,"partof6":4.59662543,"util6":0.21403232144677},"geometry": {"type": "Point","coordinates":[4.827635,45.779786]}},
{"type": "Feature","properties": {"id":4005,"name":"4005 - PLACE BERTONE","partof1":9.6488545,"util1":0.35393248581718,"partof2":49.5624006,"util2":1.8180130757931,"partof3":9.33629676,"util3":0.34246746290906,"partof4":5.06627008,"util4":0.1858373512872,"partof5":19.45076207,"util5":0.7134791565645,"partof6":6.93541599,"util6":0.25440004526101},"geometry": {"type": "Point","coordinates":[4.83453,45.77762]}},
{"type": "Feature","properties": {"id":4006,"name":"4006 - PHILIPPE DE LASSALLE","partof1":15.74001205,"util1":1.1618788094159,"partof2":31.14329226,"util2":2.2989011201132,"partof3":9.8565243,"util3":0.7275780146981,"partof4":5.88782545,"util4":0.43462099026124,"partof5":32.74816312,"util5":2.4173677031222,"partof6":4.62418284,"util6":0.34134281699363},"geometry": {"type": "Point","coordinates":[4.821234,45.773358]}},
{"type": "Feature","properties": {"id":4007,"name":"4007 - PLACE FLAMMARION","partof1":25.3918471,"util1":1.2056462488473,"partof2":25.83060045,"util2":1.2264789723792,"partof3":8.24913484,"util3":0.39168235524236,"partof4":10.34650045,"util4":0.49126868979295,"partof5":28.1302854,"util5":1.3356717586534,"partof6":2.05163176,"util6":0.097414816878764},"geometry": {"type": "Point","coordinates":[4.820259,45.779332]}},
{"type": "Feature","properties": {"id":4009,"name":"4009 - JACQUARD / DENFERT-ROCHEREAU","partof1":26.76442084,"util1":0.79621660803643,"partof2":23.08930767,"util2":0.68688541197355,"partof3":28.10652322,"util3":0.83614290463106,"partof4":6.3560995,"util4":0.1890880439553,"partof5":11.07783305,"util5":0.32955522214337,"partof6":4.60581571,"util6":0.1370187303428},"geometry": {"type": "Point","coordinates":[4.825394,45.77591]}},
{"type": "Feature","properties": {"id":4011,"name":"4011 - PLACE JEAN AMBRE","partof1":18.31382756,"util1":0.87462107714938,"partof2":25.3916408,"util2":1.2126391468047,"partof3":25.22574091,"util3":1.2047161967815,"partof4":7.68216157,"util4":0.36688018412187,"partof5":18.96587825,"util5":0.90576133305576,"partof6":4.42075091,"util6":0.21112363923084},"geometry": {"type": "Point","coordinates":[4.832866,45.781574]}},
{"type": "Feature","properties": {"id":4012,"name":"4012 - PLACE ADRIEN GODIEN","partof1":10.08149565,"util1":2.1944541228556,"partof2":22.97579828,"util2":5.0011761163082,"partof3":26.69593084,"util3":5.8109428927151,"partof4":19.04329759,"util4":4.1451828538102,"partof5":10.13218412,"util5":2.2054875573612,"partof6":11.07129352,"util6":2.4099048944497},"geometry": {"type": "Point","coordinates":[4.840917,45.779186]}},
{"type": "Feature","properties": {"id":4014,"name":"4014 - PHILIPPE DE LASSALLE / PILLEMENT","partof1":28.90902012,"util1":0.97085308366858,"partof2":14.39443739,"util2":0.48340911832178,"partof3":19.34139821,"util3":0.64954315354499,"partof4":11.54436244,"util4":0.38769490724135,"partof5":22.37801445,"util5":0.75152199019475,"partof6":3.43276738,"util6":0.11528280040472},"geometry": {"type": "Point","coordinates":[4.820526,45.777431]}},
{"type": "Feature","properties": {"id":4017,"name":"4017 - PLACE DES TAPIS","partof1":20.66704752,"util1":0.86758755573482,"partof2":22.74108287,"util2":0.95465404445667,"partof3":29.86535368,"util3":1.2537257281338,"partof4":10.71024644,"util4":0.44960832074369,"partof5":14.92182937,"util5":0.62640749520134,"partof6":1.09444012,"util6":0.045943796649717},"geometry": {"type": "Point","coordinates":[4.829628,45.776002]}},
{"type": "Feature","properties": {"id":4021,"name":"4021 - TABAREAU","partof1":20.2100282,"util1":0.68308501435812,"partof2":25.54298934,"util2":0.86333542276122,"partof3":23.30557349,"util3":0.78771231017089,"partof4":11.40470185,"util4":0.38547105673793,"partof5":16.85611193,"util5":0.56972495761911,"partof6":2.6805952,"util6":0.090602268960728},"geometry": {"type": "Point","coordinates":[4.82516,45.774061]}},
{"type": "Feature","properties": {"id":4022,"name":"4022 - PLACE DE LA CROIX-ROUSSE","partof1":5.2381717,"util1":0.24786298580479,"partof2":30.30666046,"util2":1.4340689426785,"partof3":24.93421955,"util3":1.1798525249516,"partof4":10.03110694,"util4":0.47465800272938,"partof5":22.27314742,"util5":1.0539342997847,"partof6":7.21669393,"util6":0.34148390079101},"geometry": {"type": "Point","coordinates":[4.832543,45.77608]}},
{"type": "Feature","properties": {"id":4023,"name":"4023 - PONT MAZARYK","partof1":24.47184608,"util1":1.5460501006481,"partof2":12.59291377,"util2":0.79557854106777,"partof3":22.7352658,"util3":1.4363387160676,"partof4":28.00569287,"util4":1.7693068246196,"partof5":3.80204205,"util5":0.24020041131571,"partof6":8.39223942,"util6":0.53019386267544},"geometry": {"type": "Point","coordinates":[4.810523,45.777961]}},
{"type": "Feature","properties": {"id":4025,"name":"4025 - CHAZIÈRE","partof1":30.86194943,"util1":0.97321925611502,"partof2":17.37124944,"util2":0.54779541701119,"partof3":10.07045383,"util3":0.3175677417074,"partof4":17.50372407,"util4":0.55197295158836,"partof5":17.73051865,"util5":0.5591248281391,"partof6":6.46210458,"util6":0.20377988845292},"geometry": {"type": "Point","coordinates":[4.817888,45.775425]}},
{"type": "Feature","properties": {"id":4041,"name":"4041 - BOUSSANGES / AUSTERLITZ","partof1":13.42925582,"util1":0.61667500915466,"partof2":37.29416592,"util2":1.7125580462828,"partof3":23.74206834,"util3":1.0902421107442,"partof4":5.68826402,"util4":0.261206600993,"partof5":9.99226802,"util5":0.4588476126527,"partof6":9.85397787,"util6":0.45249729207944},"geometry": {"type": "Point","coordinates":[4.83512,45.775435]}},
{"type": "Feature","properties": {"id":4042,"name":"4042 - GREGORY COUPET","partof1":10.44222106,"util1":0.19144420357235,"partof2":29.35614434,"util2":0.53820577450276,"partof3":25.10989478,"util3":0.46035644910419,"partof4":12.0429627,"util4":0.22079166774056,"partof5":10.04351253,"util5":0.18413441415641,"partof6":13.0052646,"util6":0.23843419032107},"geometry": {"type": "Point","coordinates":[4.820596,45.781699]}},
{"type": "Feature","properties": {"id":5001,"name":"5001 - PLACE VARILLON (FUNICULAIRE ST JUST)","partof1":29.47765115,"util1":1.0039557405559,"partof2":34.98153173,"util2":1.1914080065287,"partof3":15.40965474,"util3":0.52482510419447,"partof4":5.71778054,"util4":0.1947373136062,"partof5":9.80074478,"util5":0.333795726584,"partof6":4.61263706,"util6":0.15709811585472},"geometry": {"type": "Point","coordinates":[4.815064,45.757319]}},
{"type": "Feature","properties": {"id":5002,"name":"5002 - PLACE DES COMPAGNONS DE LA CHANSON","partof1":18.41639161,"util1":0.46679550318196,"partof2":19.42430214,"util2":0.49234275005731,"partof3":37.08812149,"util3":0.94006299929013,"partof4":5.18720885,"util4":0.1314788377942,"partof5":10.90721216,"util5":0.27646227862438,"partof6":8.97676374,"util6":0.22753170304456},"geometry": {"type": "Point","coordinates":[4.796616,45.756535]}},
{"type": "Feature","properties": {"id":5004,"name":"5004 - ST JEAN","partof1":18.68436678,"util1":10.393819471837,"partof2":13.13852462,"util2":7.3087546735994,"partof3":25.77262511,"util3":14.336906134567,"partof4":21.32685406,"util4":11.863793598782,"partof5":8.68085222,"util5":4.8290216039303,"partof6":12.39677721,"util6":6.8961322516559},"geometry": {"type": "Point","coordinates":[4.826548,45.760468]}},
{"type": "Feature","properties": {"id":5005,"name":"5005 - SAINT PAUL","partof1":11.06005005,"util1":2.8906051052577,"partof2":26.62475719,"util2":6.9585271957842,"partof3":28.87928254,"util3":7.5477598355265,"partof4":12.08247523,"util4":3.1578215673615,"partof5":4.80718342,"util5":1.2563839108271,"partof6":16.54625158,"util6":4.3244541456687},"geometry": {"type": "Point","coordinates":[4.827425,45.766278]}},
{"type": "Feature","properties": {"id":5006,"name":"5006 - QUAI ROMAIN ROLLAND","partof1":17.78773144,"util1":3.8148860367529,"partof2":4.25374894,"util2":0.91228988304641,"partof3":25.21381999,"util3":5.4075389060997,"partof4":27.4028021,"util4":5.8770039030449,"partof5":8.69333844,"util5":1.8644364819308,"partof6":16.64855909,"util6":3.5705708633353},"geometry": {"type": "Point","coordinates":[4.8287273299144,45.762045208075]}},
{"type": "Feature","properties": {"id":5007,"name":"5007 - PLACE DE TRION","partof1":27.31835343,"util1":0.88067541870017,"partof2":31.60515988,"util2":1.0188713416321,"partof3":14.78696175,"util3":0.47669467941592,"partof4":3.04010452,"util4":0.098005369463561,"partof5":14.98792419,"util5":0.48317320607542,"partof6":8.26149624,"util6":0.26632998503717},"geometry": {"type": "Point","coordinates":[4.81317,45.757916]}},
{"type": "Feature","properties": {"id":5008,"name":"5008 - SAINTE IRÉNÉE","partof1":27.28187027,"util1":0.87689715790244,"partof2":21.12271211,"util2":0.67892875499882,"partof3":18.30865895,"util3":0.58847911962672,"partof4":3.57959099,"util4":0.11505564444516,"partof5":23.87586028,"util5":0.76742077485173,"partof6":5.8313074,"util6":0.18743058431512},"geometry": {"type": "Point","coordinates":[4.812427,45.754978]}},
{"type": "Feature","properties": {"id":5009,"name":"5009 - PLACE FOUSSERET","partof1":10.96849731,"util1":3.0841963037884,"partof2":16.95708069,"util2":4.7681067067828,"partof3":23.15664444,"util3":6.5113419980399,"partof4":22.50737172,"util4":6.3287751006264,"partof5":8.90961857,"util5":2.5052668460525,"partof6":17.50078727,"util6":4.920989802524},"geometry": {"type": "Point","coordinates":[4.828969,45.764695]}},
{"type": "Feature","properties": {"id":5015,"name":"5015 - FULCHIRON","partof1":44.79825758,"util1":6.6499994744924,"partof2":18.73928311,"util2":2.7817203071197,"partof3":10.83895361,"util3":1.6089696274867,"partof4":1.08226146,"util4":0.16065442115491,"partof5":9.35791244,"util5":1.3891190454722,"partof6":15.1833318,"util6":2.2538632961502},"geometry": {"type": "Point","coordinates":[4.821662,45.75197]}},
{"type": "Feature","properties": {"id":5016,"name":"5016 - MAIRIE DU 5°","partof1":6.15754962,"util1":0.041416210915641,"partof2":12.53421557,"util2":0.08430621720418,"partof3":32.45524542,"util3":0.21829678566742,"partof4":18.7657868,"util4":0.12622030386606,"partof5":21.71195025,"util5":0.14603645385547,"partof6":8.37525235,"util6":0.056332671144487},"geometry": {"type": "Point","coordinates":[4.801023,45.757581]}},
{"type": "Feature","properties": {"id":5026,"name":"5026 - RUE DE LA BALEINE","partof1":24.5271559,"util1":3.2946823725721,"partof2":5.15723772,"util2":0.69276112878818,"partof3":24.05689578,"util3":3.2315132984974,"partof4":18.21596517,"util4":2.4469131109076,"partof5":0,"util5":0,"partof6":28.04274543,"util6":3.7669242786827},"geometry": {"type": "Point","coordinates":[4.829024,45.763383]}},
{"type": "Feature","properties": {"id":5029,"name":"5029 - PLACE GERSON","partof1":27.1099614,"util1":2.6859650943408,"partof2":22.24400493,"util2":2.2038622600298,"partof3":20.54656418,"util3":2.0356854582653,"partof4":8.26139562,"util4":0.8185116879532,"partof5":1.82369624,"util5":0.18068577712252,"partof6":20.01437764,"util6":1.9829581803091},"geometry": {"type": "Point","coordinates":[4.827014,45.767057]}},
{"type": "Feature","properties": {"id":5030,"name":"5030 - CHARCOT / RÉSIDENCE UNIVERSITAIRE","partof1":28.87329561,"util1":0.92300184341872,"partof2":26.6322185,"util2":0.85136061715506,"partof3":18.13626623,"util3":0.57976780306384,"partof4":5.14138071,"util4":0.1643561558454,"partof5":16.98210989,"util5":0.54287251948408,"partof6":4.23472906,"util6":0.1353729335769},"geometry": {"type": "Point","coordinates":[4.807811,45.755054]}},
{"type": "Feature","properties": {"id":5031,"name":"5031- MENIVAL/J.CURIE","partof1":35.07271399,"util1":0.38661609080993,"partof2":22.387861,"util2":0.2467874970806,"partof3":0.75877142,"util3":0.0083641442832835,"partof4":13.901832,"util4":0.15324368523259,"partof5":16.60919725,"util5":0.1830877106949,"partof6":11.26962434,"util6":0.1242281423807},"geometry": {"type": "Point","coordinates":[4.78821,45.754654]}},
{"type": "Feature","properties": {"id":5036,"name":"5036 - LA SALETTE","partof1":4.00965985,"util1":0.057397017944944,"partof2":22.22986727,"util2":0.31821354886497,"partof3":41.6493539,"util3":0.59619738397351,"partof4":9.92617017,"util4":0.14208999982182,"partof5":9.78226959,"util5":0.14003010833937,"partof6":12.40267921,"util6":0.17754044677424},"geometry": {"type": "Point","coordinates":[4.795546,45.749627]}},
{"type": "Feature","properties": {"id":5040,"name":"5040 - PLACE CRÉPU","partof1":24.79977433,"util1":5.3363622806561,"partof2":13.71901073,"util2":2.9520273214312,"partof3":25.76322844,"util3":5.5436762708293,"partof4":17.49400915,"util4":3.7643233895311,"partof5":1.94597026,"util5":0.41872970925306,"partof6":16.2780071,"util6":3.502666674979},"geometry": {"type": "Point","coordinates":[4.826103,45.757847]}},
{"type": "Feature","properties": {"id":5041,"name":"5041 - L'HOMME DE LA ROCHE","partof1":40.65246036,"util1":6.279412659754,"partof2":18.93718119,"util2":2.9251458399194,"partof3":14.16331817,"util3":2.1877475221237,"partof4":4.29718124,"util4":0.66376731053316,"partof5":5.02790627,"util5":0.7766392981951,"partof6":16.92195278,"util6":2.6138620780514},"geometry": {"type": "Point","coordinates":[4.819936,45.766537]}},
{"type": "Feature","properties": {"id":5044,"name":"5044 - CHAMPVERT","partof1":20.17313365,"util1":0.17428976763126,"partof2":9.66079632,"util2":0.083466355547877,"partof3":6.83884043,"util3":0.059085510961852,"partof4":19.83707121,"util4":0.17138628988738,"partof5":32.05764053,"util5":0.2769683092235,"partof6":11.43251786,"util6":0.098773493292136},"geometry": {"type": "Point","coordinates":[4.796561,45.7598]}},
{"type": "Feature","properties": {"id":5045,"name":"5045 - VALDO / RIVET","partof1":12.78388628,"util1":0.11712467241307,"partof2":40.5728529,"util2":0.3717243724399,"partof3":35.35527609,"util3":0.32392146170709,"partof4":3.88983597,"util4":0.035638283519432,"partof5":0.96505841,"util5":0.0088417674919059,"partof6":6.43309035,"util6":0.058939322780601},"geometry": {"type": "Point","coordinates":[4.792193,45.750205]}},
{"type": "Feature","properties": {"id":5047,"name":"5047 - ALBÉRIC PONT","partof1":15.59813409,"util1":0.3182202620999,"partof2":44.99581394,"util2":0.91796747115829,"partof3":19.29938899,"util3":0.39373021076303,"partof4":3.07550369,"util4":0.06274388876734,"partof5":9.73970882,"util5":0.19870150337175,"partof6":7.29145046,"util6":0.14875415630368},"geometry": {"type": "Point","coordinates":[4.804401,45.753452]}},
{"type": "Feature","properties": {"id":5050,"name":"5050 - THEATRE ROMAIN","partof1":18.79225452,"util1":0.54080074551027,"partof2":17.07914397,"util2":0.49150110125548,"partof3":18.67866753,"util3":0.53753195576464,"partof4":13.56780426,"util4":0.39045228186626,"partof5":27.20959337,"util5":0.78303368889915,"partof6":4.67253636,"util6":0.13446556634397},"geometry": {"type": "Point","coordinates":[4.821075,45.758333]}},
{"type": "Feature","properties": {"id":5053,"name":"5053 - SAINT JUST","partof1":15.7685422,"util1":0.62012381152726,"partof2":48.47554566,"util2":1.9063804224428,"partof3":0,"util3":0,"partof4":5.84105957,"util4":0.22970925770844,"partof5":24.67205546,"util5":0.97026908867119,"partof6":5.24279711,"util6":0.20618160421433},"geometry": {"type": "Point","coordinates":[4.818904,45.75597]}},
{"type": "Feature","properties": {"id":5054,"name":"5054 - CHAMPVERT","partof1":14.10059941,"util1":0.074823672358956,"partof2":1.30049391,"util2":0.0069009640936007,"partof3":13.04515333,"util3":0.069223034443772,"partof4":26.97926491,"util4":0.14316325281035,"partof5":11.76257243,"util5":0.062417124266124,"partof6":32.81191601,"util6":0.1741137367012},"geometry": {"type": "Point","coordinates":[4.792643,45.763906]}},
{"type": "Feature","properties": {"id":5055,"name":"5055 - BUYER / APOLLINAIRE","partof1":12.87873738,"util1":0.14884983535735,"partof2":9.06144866,"util2":0.10473038632147,"partof3":71.37867606,"util3":0.82498026522822,"partof4":4.48377729,"util4":0.051822588791351,"partof5":0,"util5":0,"partof6":2.19736061,"util6":0.025396648395608},"geometry": {"type": "Point","coordinates":[4.802751,45.762013]}},
{"type": "Feature","properties": {"id":6001,"name":"6001 - GARE DES BROTTEAUX","partof1":21.39215675,"util1":4.3609133645391,"partof2":23.26330048,"util2":4.7423567035391,"partof3":15.52811829,"util3":3.1654956238578,"partof4":0.55542116,"util4":0.11322577652634,"partof5":21.45774881,"util5":4.3742846806904,"partof6":17.80325451,"util6":3.6292951399092},"geometry": {"type": "Point","coordinates":[4.858922,45.766893]}},
{"type": "Feature","properties": {"id":6002,"name":"6002 - PORTE DES ENFANTS DU RHÔNE","partof1":12.17484364,"util1":7.3866078263657,"partof2":1.63009104,"util2":0.98899366511721,"partof3":23.36898434,"util3":14.178212692024,"partof4":54.87418274,"util4":33.292753457711,"partof5":7.220104,"util5":4.3805143039664,"partof6":0.73179424,"util6":0.44398739074676},"geometry": {"type": "Point","coordinates":[4.844922,45.777521]}},
{"type": "Feature","properties": {"id":6003,"name":"6003 - AVENUE VERGUIN","partof1":12.55512504,"util1":3.4208357379879,"partof2":12.15859778,"util2":3.3127958245842,"partof3":13.43786482,"util3":3.6613516848341,"partof4":48.08975383,"util4":13.102788543212,"partof5":13.75865853,"util5":3.7487568348579,"partof6":0,"util6":0},"geometry": {"type": "Point","coordinates":[4.856274,45.772846]}},
{"type": "Feature","properties": {"id":6004,"name":"6004 - FOCH","partof1":30.79977341,"util1":13.252351449455,"partof2":13.61299082,"util2":5.8573203193202,"partof3":25.41755463,"util3":10.936520943142,"partof4":1.54464304,"util4":0.66462022812769,"partof5":17.45913728,"util5":7.5122183581951,"partof6":11.16590082,"util6":4.8044003423856},"geometry": {"type": "Point","coordinates":[4.844845,45.768896]}},
{"type": "Feature","properties": {"id":6005,"name":"6005 - PLACE EDGAR QUINET","partof1":37.57084388,"util1":15.070580902684,"partof2":18.22073872,"util2":7.3087822531611,"partof3":16.01840349,"util3":6.4253719319941,"partof4":4.28477691,"util4":1.7187284181946,"partof5":18.71239603,"util5":7.5059979795477,"partof6":5.19284097,"util6":2.0829750378542},"geometry": {"type": "Point","coordinates":[4.844767,45.765811]}},
{"type": "Feature","properties": {"id":6006,"name":"6006 - BOULEVARD DES BELGES","partof1":8.58874889,"util1":2.2641145673123,"partof2":8.12803926,"util2":2.1426650526107,"partof3":18.05290288,"util3":4.7589981866244,"partof4":50.84751617,"util4":13.404117822816,"partof5":13.35272517,"util5":3.5199654755204,"partof6":1.03006763,"util6":0.27154026229772},"geometry": {"type": "Point","coordinates":[4.852001,45.773304]}},
{"type": "Feature","properties": {"id":6007,"name":"6007 - MASSÉNA","partof1":27.80551671,"util1":12.003112064121,"partof2":9.31965762,"util2":4.0231187206053,"partof3":28.19619065,"util3":12.171758564428,"partof4":9.73834688,"util4":4.2038589010608,"partof5":9.92320864,"util5":4.2836602025361,"partof6":15.01707949,"util6":6.4825872460577},"geometry": {"type": "Point","coordinates":[4.852366,45.769654]}},
{"type": "Feature","properties": {"id":6008,"name":"6008 - PLACE JULES FERRY","partof1":37.46134421,"util1":9.1365383319017,"partof2":18.51897495,"util2":4.5166378320465,"partof3":10.46498148,"util3":2.5523297802308,"partof4":4.2182538,"util4":1.0288001765591,"partof5":18.9473426,"util5":4.6211134598411,"partof6":10.38910296,"util6":2.5338235834787},"geometry": {"type": "Point","coordinates":[4.858972,45.7684]}},
{"type": "Feature","properties": {"id":6011,"name":"6011- MAIRIE DU 6ÈME","partof1":30.94992808,"util1":9.7621861163555,"partof2":18.57281558,"util2":5.8582133673477,"partof3":17.78279748,"util3":5.6090268843435,"partof4":5.35147343,"util4":1.6879547986462,"partof5":21.83382284,"util5":6.8867960418089,"partof6":5.5091626,"util6":1.7376929118365},"geometry": {"type": "Point","coordinates":[4.849402,45.768395]}},
{"type": "Feature","properties": {"id":6012,"name":"6012 - PLACE PUVIS DE CHAVANNES","partof1":30.16558687,"util1":7.6162377152743,"partof2":17.62175559,"util2":4.4491585763703,"partof3":14.75552161,"util3":3.7254889380717,"partof4":12.60635496,"util4":3.1828651805204,"partof5":20.10196225,"util5":5.0753636486261,"partof6":4.74881871,"util6":1.1989865245444},"geometry": {"type": "Point","coordinates":[4.84459,45.771794]}},
{"type": "Feature","properties": {"id":6016,"name":"6016 - VIABERT / THIERS","partof1":38.88054184,"util1":9.6194029624399,"partof2":24.63701004,"util2":6.0954224439491,"partof3":5.76767347,"util3":1.4269753619181,"partof4":5.20923385,"util4":1.2888122736289,"partof5":17.45149873,"util5":4.3176609851067,"partof6":8.05404207,"util6":1.9926439417073},"geometry": {"type": "Point","coordinates":[4.86218,45.766002]}},
{"type": "Feature","properties": {"id":6020,"name":"6020 - MUSÉE GUIMET","partof1":29.69787846,"util1":4.5625769311186,"partof2":21.42409636,"util2":3.2914501941227,"partof3":2.89067683,"util3":0.44410362301271,"partof4":28.99407119,"util4":4.4544488431685,"partof5":13.38756264,"util5":2.0567726596174,"partof6":3.60571451,"util6":0.55395707358975},"geometry": {"type": "Point","coordinates":[4.848443,45.774526]}},
{"type": "Feature","properties": {"id":6021,"name":"6021- GARIBALDI","partof1":36.67584291,"util1":8.3127508181574,"partof2":18.10732963,"util2":4.104110696673,"partof3":25.57607359,"util3":5.7969363426016,"partof4":5.74520167,"util4":1.3021767488744,"partof5":9.71233199,"util5":2.2013453349719,"partof6":4.18322021,"util6":0.94814636731168},"geometry": {"type": "Point","coordinates":[4.849946,45.770664]}},
{"type": "Feature","properties": {"id":6022,"name":"6022- PLACE MARÉCHAL LYAUTEY","partof1":30.44027801,"util1":5.5168470550924,"partof2":6.53813221,"util2":1.1849390934174,"partof3":22.52698276,"util3":4.0826801403981,"partof4":12.88527419,"util4":2.3352640519843,"partof5":9.45041801,"util5":1.7127475232235,"partof6":18.15891481,"util6":3.291032876254},"geometry": {"type": "Point","coordinates":[4.842584,45.7694]}},
{"type": "Feature","properties": {"id":6023,"name":"6023 - QUAI SARRAIL","partof1":17.68149004,"util1":4.5315828662021,"partof2":5.40738528,"util2":1.3858568723771,"partof3":22.1947538,"util3":5.688285648558,"partof4":34.28217493,"util4":8.7861665604812,"partof5":9.12495671,"util5":2.3386319472129,"partof6":11.30923925,"util6":2.8984409514776},"geometry": {"type": "Point","coordinates":[4.841095,45.766821]}},
{"type": "Feature","properties": {"id":6024,"name":"6024 - TRONCHET / ANATOLE FRANCE","partof1":31.49816248,"util1":7.2368862358284,"partof2":9.6538506,"util2":2.2180283873462,"partof3":19.60085149,"util3":4.503409760762,"partof4":15.59350401,"util4":3.5826983434338,"partof5":18.96483131,"util5":4.357280421018,"partof6":4.68880011,"util6":1.0772791270016},"geometry": {"type": "Point","coordinates":[4.856713,45.770743]}},
{"type": "Feature","properties": {"id":6028,"name":"6028 - RECAMMIER / TÊTE D'OR","partof1":39.27701274,"util1":10.066615898876,"partof2":28.60575421,"util2":7.331594743112,"partof3":0,"util3":0,"partof4":2.33295528,"util4":0.59793153996912,"partof5":21.95126025,"util5":5.6260619130022,"partof6":7.83301752,"util6":2.0075859440986},"geometry": {"type": "Point","coordinates":[4.853492,45.764345]}},
{"type": "Feature","properties": {"id":6031,"name":"6031 - LAFAYETTE/CORNEILLE","partof1":39.75933378,"util1":10.771603366975,"partof2":12.88038233,"util2":3.4895546902634,"partof3":20.99349819,"util3":5.6875609898104,"partof4":3.27842437,"util4":0.88819111451076,"partof5":13.63698625,"util5":3.6945339129343,"partof6":9.45137508,"util6":2.5605676442566},"geometry": {"type": "Point","coordinates":[4.843791,45.763717]}},
{"type": "Feature","properties": {"id":6032,"name":"6032 - PRÉFECTURE / SARRAIL","partof1":31.79885294,"util1":7.1970892730879,"partof2":5.05698415,"util2":1.1445559513991,"partof3":25.7454793,"util3":5.827018768575,"partof4":14.14693043,"util4":3.2018991828727,"partof5":6.82609248,"util5":1.5449612933401,"partof6":16.4256607,"util6":3.7176481381392},"geometry": {"type": "Point","coordinates":[4.841567,45.764821]}},
{"type": "Feature","properties": {"id":6035,"name":"6035 - CITÉ INTERNATIONALE","partof1":37.50651974,"util1":3.4823748249865,"partof2":26.38669591,"util2":2.44993047045,"partof3":1.33043617,"util3":0.12352725490866,"partof4":14.92896121,"util4":1.3861120424207,"partof5":19.84738696,"util5":1.8427740342317,"partof6":0,"util6":0},"geometry": {"type": "Point","coordinates":[4.854085,45.785456]}},
{"type": "Feature","properties": {"id":6036,"name":"6036 - MUSÉE D'ART CONTEMPORAIN","partof1":18.24935743,"util1":4.0949448436485,"partof2":15.12577116,"util2":3.3940481935012,"partof3":7.47726327,"util3":1.6778114401855,"partof4":47.50107819,"util4":10.658692830583,"partof5":8.00644906,"util5":1.7965546140427,"partof6":3.64008089,"util6":0.81679207216717},"geometry": {"type": "Point","coordinates":[4.852156,45.783885]}},
{"type": "Feature","properties": {"id":6037,"name":"6037 - CITÉ INTERNATIONALE / INTERPOL","partof1":15.84465373,"util1":1.9670626987063,"partof2":22.01330981,"util2":2.73288147158,"partof3":0.03352977,"util3":0.0041626128905755,"partof4":45.26295901,"util4":5.6192504941315,"partof5":15.48574663,"util5":1.9225055388756,"partof6":1.35980106,"util6":0.16881491942755},"geometry": {"type": "Point","coordinates":[4.849378,45.782287]}},
{"type": "Feature","properties": {"id":6040,"name":"6040 - LES HALLES","partof1":30.3480986,"util1":8.3328351004568,"partof2":18.71831313,"util2":5.1395844835895,"partof3":14.90049948,"util3":4.0913075549742,"partof4":9.72990962,"util4":2.6715918342841,"partof5":23.81038711,"util5":6.5377416911935,"partof6":2.49279207,"util6":0.6844588694936},"geometry": {"type": "Point","coordinates":[4.849933,45.764013]}},
{"type": "Feature","properties": {"id":6041,"name":"6041 - CITÉ INTERNATIONALE / TÊTE D'OR NORD","partof1":19.89879387,"util1":2.004250630169,"partof2":6.71670431,"util2":0.67652134767182,"partof3":10.43292084,"util3":1.0508269146703,"partof4":44.79813068,"util4":4.5121670304423,"partof5":7.92666367,"util5":0.79839113664506,"partof6":10.22678662,"util6":1.0300646190743},"geometry": {"type": "Point","coordinates":[4.859664,45.78458]}},
{"type": "Feature","properties": {"id":6042,"name":"6042 - CITÉ INTERNATIONALE - RÉSIDENCE HÔTELIÈRE","partof1":24.60289467,"util1":3.8219143280869,"partof2":21.17905333,"util2":3.2900408046678,"partof3":0,"util3":0,"partof4":30.03762015,"util4":4.6661668219432,"partof5":24.18043185,"util5":3.7562872249961,"partof6":0,"util6":0},"geometry": {"type": "Point","coordinates":[4.856432,45.784812]}},
{"type": "Feature","properties": {"id":6043,"name":"6043 - CITÉ INTERNATIONALE - CINÉMA","partof1":46.84786085,"util1":3.5232722365558,"partof2":12.06258597,"util2":0.90718708342408,"partof3":3.41673335,"util3":0.25696118314374,"partof4":35.38309055,"util4":2.6610448869269,"partof5":2.28972927,"util5":0.17220294416538,"partof6":0,"util6":0},"geometry": {"type": "Point","coordinates":[4.851896,45.784698]}},
{"type": "Feature","properties": {"id":6044,"name":"6044 - CHARMETTES / BELLECOMBE","partof1":41.04215312,"util1":10.330005330574,"partof2":16.7431216,"util2":4.2141194413644,"partof3":15.10079927,"util3":3.8007591000144,"partof4":7.53080305,"util4":1.8954472350061,"partof5":9.61843072,"util5":2.4208876254335,"partof6":9.96469223,"util6":2.5080390775909},"geometry": {"type": "Point","coordinates":[4.865058,45.766372]}},
{"type": "Feature","properties": {"id":6045,"name":"6045 - BROTTEAUX / VAUBAN","partof1":44.12271778,"util1":13.290292585014,"partof2":15.33970554,"util2":4.6205035648771,"partof3":15.61215431,"util3":4.7025684069791,"partof4":5.77436125,"util4":1.7393069685035,"partof5":7.56105593,"util5":2.2774808673935,"partof6":11.5900052,"util6":3.4910487821231},"geometry": {"type": "Point","coordinates":[4.856848,45.766284]}},
{"type": "Feature","properties": {"id":7001,"name":"7001 - PLACE GABRIEL PÉRI","partof1":29.62669212,"util1":13.537633427531,"partof2":0.72537026,"util2":0.33145099828692,"partof3":31.33637254,"util3":14.318855533275,"partof4":6.82921019,"util4":3.1205422386447,"partof5":8.97031844,"util5":4.0989011624071,"partof6":22.51203645,"util6":10.286659608603},"geometry": {"type": "Point","coordinates":[4.843627,45.754875]}},
{"type": "Feature","properties": {"id":7002,"name":"7002 - UNIVERSITÉS LYON III / LYON II","partof1":3.70326315,"util1":1.2408568861729,"partof2":7.45368345,"util2":2.4975147759309,"partof3":32.06779598,"util3":10.744995387695,"partof4":16.22482601,"util4":5.4364721776429,"partof5":34.50582157,"util5":11.561907586337,"partof6":6.04460984,"util6":2.0253747682479},"geometry": {"type": "Point","coordinates":[4.836395,45.751404]}},
{"type": "Feature","properties": {"id":7003,"name":"7003 - GAMBETTA / GARIBALDI","partof1":38.30301414,"util1":19.751779638668,"partof2":18.01679316,"util2":9.2907499913995,"partof3":27.15873074,"util3":14.004988298876,"partof4":5.6070171,"util4":2.8913799259935,"partof5":3.26749623,"util5":1.6849552692967,"partof6":7.64694863,"util6":3.9433148445161},"geometry": {"type": "Point","coordinates":[4.8526,45.751827]}},
{"type": "Feature","properties": {"id":7004,"name":"7004 - MAIRIE DU 7ÈME","partof1":19.3603531,"util1":6.297744196109,"partof2":29.7049181,"util2":9.6627357256293,"partof3":22.38751257,"util3":7.2824512355116,"partof4":2.86329967,"util4":0.93140495864527,"partof5":12.09734861,"util5":3.9351558622624,"partof6":13.58656795,"util6":4.4195851702805},"geometry": {"type": "Point","coordinates":[4.842265,45.74656]}},
{"type": "Feature","properties": {"id":7005,"name":"7005 - DEBOURG","partof1":18.91359795,"util1":4.2662778599311,"partof2":9.59882006,"util2":2.1651741573284,"partof3":30.43541158,"util3":6.8652153294632,"partof4":6.44561579,"util4":1.4539162781822,"partof5":19.53443539,"util5":4.4063181120233,"partof6":15.07211922,"util6":3.3997681826861},"geometry": {"type": "Point","coordinates":[4.833996,45.73182]}},
{"type": "Feature","properties": {"id":7006,"name":"7006 - GERLAND","partof1":22.0773086,"util1":3.7244026140529,"partof2":29.5577251,"util2":4.9863355458055,"partof3":17.66504393,"util3":2.9800614278795,"partof4":4.27914476,"util4":0.7218840946063,"partof5":7.61831748,"util5":1.2851965813078,"partof6":18.80246014,"util6":3.171941515373},"geometry": {"type": "Point","coordinates":[4.831145,45.727494]}},
{"type": "Feature","properties": {"id":7007,"name":"7007 - FARGE / AYASSE","partof1":22.15514611,"util1":4.2219508485291,"partof2":22.05709747,"util2":4.2032664066938,"partof3":26.86229387,"util3":5.118958991956,"partof4":10.82084186,"util4":2.0620519605603,"partof5":11.29216463,"util5":2.1518686360565,"partof6":6.81245606,"util6":1.2982019843282},"geometry": {"type": "Point","coordinates":[4.827725,45.735741]}},
{"type": "Feature","properties": {"id":7008,"name":"7008 - JEAN JAURÈS / GUILLOTIÈRE","partof1":27.32237492,"util1":8.340226985748,"partof2":4.30272351,"util2":1.3134176964992,"partof3":34.84934885,"util3":10.637855624394,"partof4":5.43596,"util4":1.6593411230976,"partof5":9.2519159,"util5":2.824171723175,"partof6":18.83767682,"util6":5.7502505189605},"geometry": {"type": "Point","coordinates":[4.846278,45.75251]}},
{"type": "Feature","properties": {"id":7009,"name":"7009 - JEAN JAURÈS","partof1":27.49629761,"util1":7.4990190619868,"partof2":13.94800933,"util2":3.8040171562734,"partof3":31.982733,"util3":8.7225970500919,"partof4":4.22749411,"util4":1.1529573677511,"partof5":11.32646724,"util5":3.0890483854393,"partof6":11.01899871,"util6":3.0051930097035},"geometry": {"type": "Point","coordinates":[4.837484,45.737503]}},
{"type": "Feature","properties": {"id":7010,"name":"7010 - CENTRE BERTHELOT","partof1":31.64683972,"util1":12.513474112224,"partof2":7.55344534,"util2":2.9867071580123,"partof3":18.92360625,"util3":7.4825814841046,"partof4":12.26971865,"util4":4.8515683730031,"partof5":15.93680769,"util5":6.3015717280067,"partof6":13.66958235,"util6":5.4050883555852},"geometry": {"type": "Point","coordinates":[4.836009,45.747358]}},
{"type": "Feature","properties": {"id":7011,"name":"7011 - BERTHELOT / GARIBALDI","partof1":22.63835037,"util1":3.4387189948988,"partof2":11.82455031,"util2":1.7961249425231,"partof3":26.77857526,"util3":4.0676106649942,"partof4":7.95701488,"util4":1.2086542421752,"partof5":7.2971958,"util5":1.1084290770677,"partof6":23.50431338,"util6":3.5702570002171},"geometry": {"type": "Point","coordinates":[4.847406,45.743756]}},
{"type": "Feature","properties": {"id":7012,"name":"7012 - PLACE DES PAVILLONS","partof1":42.46942244,"util1":2.9751064272036,"partof2":11.62549274,"util2":0.81439954167135,"partof3":28.08180459,"util3":1.9672119968483,"partof4":1.33353643,"util4":0.093418101209365,"partof5":4.37780029,"util5":0.30667762902106,"partof6":12.11194351,"util6":0.84847683138232},"geometry": {"type": "Point","coordinates":[4.829697,45.7295]}},
{"type": "Feature","properties": {"id":7013,"name":"7013 - HALLE TONY GARNIER","partof1":16.41309721,"util1":2.234040516727,"partof2":18.09894082,"util2":2.4635062221583,"partof3":21.74359028,"util3":2.9595914191647,"partof4":30.26776078,"util4":4.1198442358534,"partof5":6.30886293,"util5":0.85872003435828,"partof6":7.16774797,"util6":0.97562569536915},"geometry": {"type": "Point","coordinates":[4.823733,45.730786]}},
{"type": "Feature","properties": {"id":7014,"name":"7014 - MARSEILLE / FÉLISSENT","partof1":38.98365548,"util1":10.389098501446,"partof2":9.05586198,"util2":2.4133766053312,"partof3":21.16004047,"util3":5.6391259883313,"partof4":4.71722166,"util4":1.2571340443956,"partof5":7.72478287,"util5":2.0586455823746,"partof6":18.35843754,"util6":4.8925020906149},"geometry": {"type": "Point","coordinates":[4.841417,45.752989]}},
{"type": "Feature","properties": {"id":7016,"name":"7016 - PLACE SAINT LOUIS","partof1":20.18443112,"util1":4.6189951647075,"partof2":19.59894726,"util2":4.4850133297835,"partof3":30.83375401,"util3":7.0559809109928,"partof4":13.76593962,"util4":3.1501907665572,"partof5":9.02401621,"util5":2.0650513751131,"partof6":6.59291179,"util6":1.5087186504443},"geometry": {"type": "Point","coordinates":[4.847714,45.748925]}},
{"type": "Feature","properties": {"id":7018,"name":"7018 - LYCEE LOUISE LABE","partof1":29.03904386,"util1":3.6758488068358,"partof2":22.65312541,"util2":2.8675001976959,"partof3":22.75454987,"util3":2.8803388084323,"partof4":5.45224421,"util4":0.69016133831845,"partof5":6.51904011,"util5":0.82519954601763,"partof6":13.58199653,"util6":1.7192496412741},"geometry": {"type": "Point","coordinates":[4.832061,45.740279]}},
{"type": "Feature","properties": {"id":7020,"name":"7020 - PARC DE GERLAND","partof1":26.50080124,"util1":1.9718480487356,"partof2":6.66285702,"util2":0.49576393916954,"partof3":4.88818585,"util3":0.3637157851526,"partof4":54.71540313,"util4":4.0712150519746,"partof5":6.95326321,"util5":0.51737222466651,"partof6":0.27948955,"util6":0.020796009857153},"geometry": {"type": "Point","coordinates":[4.826821,45.724352]}},
{"type": "Feature","properties": {"id":7021,"name":"7021- CHALLEMEL LACOUR / GERLAND","partof1":1.29304892,"util1":0.092919770761762,"partof2":31.92103987,"util2":2.2938774096787,"partof3":26.92253001,"util3":1.9346795609681,"partof4":0.57332944,"util4":0.041200019049372,"partof5":27.24100093,"util5":1.9575651953961,"partof6":12.04905083,"util6":0.86585667696194},"geometry": {"type": "Point","coordinates":[4.838138,45.729791]}},
{"type": "Feature","properties": {"id":7022,"name":"7022 - JAURÈS / LAGRANGE","partof1":13.30978587,"util1":3.1990681236919,"partof2":29.0965941,"util2":6.9934999407553,"partof3":26.38179657,"util3":6.3409858939233,"partof4":4.76260041,"util4":1.1447128681352,"partof5":12.08686207,"util5":2.9051327753327,"partof6":14.36236098,"util6":3.4520593825356},"geometry": {"type": "Point","coordinates":[4.841463,45.743975]}},
{"type": "Feature","properties": {"id":7023,"name":"7023 - BERTHELOT / ROUTE DE VIENNE","partof1":23.26075978,"util1":5.5038842004632,"partof2":11.46659725,"util2":2.7131883925655,"partof3":31.51449642,"util3":7.4568561204406,"partof4":8.16743344,"util4":1.9325511416614,"partof5":5.45417235,"util5":1.290548258427,"partof6":20.13654075,"util6":4.7646418059482},"geometry": {"type": "Point","coordinates":[4.850538,45.742639]}},
{"type": "Feature","properties": {"id":7024,"name":"7024 - BANCEL / CHEVREUL","partof1":35.7802563,"util1":9.7526094347771,"partof2":16.99482337,"util2":4.632271869462,"partof3":18.7695313,"util3":5.1160032647034,"partof4":5.86297145,"util4":1.5980676661363,"partof5":14.35142705,"util5":3.9117624445397,"partof6":8.24099053,"util6":2.2462433281895},"geometry": {"type": "Point","coordinates":[4.840505,45.748504]}},
{"type": "Feature","properties": {"id":7030,"name":"7030 - QUARTIER GENERAL FRERE","partof1":32.23149065,"util1":11.017630014844,"partof2":9.00510707,"util2":3.0781988651622,"partof3":22.23421728,"util3":7.6002808036646,"partof4":12.38571347,"util4":4.2337852122371,"partof5":10.15625265,"util5":3.4716928003756,"partof6":13.98721888,"util6":4.7812248037147},"geometry": {"type": "Point","coordinates":[4.834165,45.743163]}},
{"type": "Feature","properties": {"id":7031,"name":"7031 - JAURÈS / GERLAND","partof1":33.51243599,"util1":5.9671199532846,"partof2":13.92513387,"util2":2.4794659568356,"partof3":12.24921509,"util3":2.1810570797487,"partof4":6.69089951,"util4":1.19136072303,"partof5":20.34121428,"util5":3.6218932470455,"partof6":13.28110126,"util6":2.3647915166116},"geometry": {"type": "Point","coordinates":[4.840308,45.739827]}},
{"type": "Feature","properties": {"id":7033,"name":"7033 - ST LUC / ST JOSEPH","partof1":26.6415718,"util1":10.120135368735,"partof2":16.71494987,"util2":6.3493834611525,"partof3":18.63566478,"util3":7.0789911224372,"partof4":12.09168781,"util4":4.5931793511405,"partof5":16.55117027,"util5":6.2871697248504,"partof6":9.36495547,"util6":3.557395854496},"geometry": {"type": "Point","coordinates":[4.834816,45.749431]}},
{"type": "Feature","properties": {"id":7034,"name":"7034 - PISCINE DU RHÔNE","partof1":21.76347801,"util1":6.6613989296657,"partof2":5.6536218,"util2":1.7304692839054,"partof3":38.01214929,"util3":11.634817306239,"partof4":12.60224179,"util4":3.8573136119476,"partof5":15.84684909,"util5":4.850428020659,"partof6":6.12166002,"util6":1.8737271444513},"geometry": {"type": "Point","coordinates":[4.838283,45.753705]}},
{"type": "Feature","properties": {"id":7035,"name":"7035 - MARSEILLE / UNIVERSITÉ","partof1":30.51761661,"util1":14.560479406166,"partof2":1.17952142,"util2":0.56276994250641,"partof3":28.48908145,"util3":13.592630415882,"partof4":2.27397604,"util4":1.0849530526472,"partof5":28.16751855,"util5":13.43920722943,"partof6":9.37228594,"util6":4.4716787081386},"geometry": {"type": "Point","coordinates":[4.83927,45.750945]}},
{"type": "Feature","properties": {"id":7038,"name":"7038 - PLACE STALINGRAD","partof1":28.64671188,"util1":5.0278937854987,"partof2":23.86659369,"util2":4.1889169897628,"partof3":23.77261899,"util3":4.1724231313367,"partof4":7.66334086,"util4":1.3450222157277,"partof5":5.54431583,"util5":0.97310404151343,"partof6":10.50641876,"util6":1.8440216738498},"geometry": {"type": "Point","coordinates":[4.85299,45.749622]}},
{"type": "Feature","properties": {"id":7039,"name":"7039 - GUILLOTIÈRE / MADELEINE","partof1":26.58709548,"util1":3.7716371861428,"partof2":11.75974477,"util2":1.6682337755715,"partof3":29.72520666,"util3":4.2168086728004,"partof4":8.40425495,"util4":1.192225021913,"partof5":9.02443625,"util5":1.2802037503525,"partof6":14.4992619,"util6":2.0568608329105},"geometry": {"type": "Point","coordinates":[4.848018,45.751073]}},
{"type": "Feature","properties": {"id":7041,"name":"7041 - DOMER / CHEVREUL","partof1":23.50023247,"util1":3.6723123650008,"partof2":20.48352238,"util2":3.2008999319845,"partof3":26.56980829,"util3":4.1519859705059,"partof4":9.3216759,"util4":1.456670937779,"partof5":8.04579575,"util5":1.2572928908986,"partof6":12.07896522,"util6":1.8875444483558},"geometry": {"type": "Point","coordinates":[4.844455,45.746681]}},
{"type": "Feature","properties": {"id":7045,"name":"7045 - PARC DES BERGES","partof1":22.6137527,"util1":4.7234001151652,"partof2":20.69865041,"util2":4.3233871453082,"partof3":20.99950691,"util3":4.3862279150646,"partof4":27.17448483,"util4":5.676013463063,"partof5":5.43908746,"util5":1.1360779732485,"partof6":3.0745177,"util6":0.6421834293013},"geometry": {"type": "Point","coordinates":[4.824495,45.737745]}},
{"type": "Feature","properties": {"id":7046,"name":"7046 - PLACE DE L'ECOLE","partof1":27.8952998,"util1":4.3478985877979,"partof2":20.81997539,"util2":3.2451037359407,"partof3":29.15441894,"util3":4.5441510880372,"partof4":3.42189521,"util4":0.53335341286245,"partof5":10.45217312,"util5":1.6291270957363,"partof6":8.25623755,"util6":1.2868577803981},"geometry": {"type": "Point","coordinates":[4.82781,45.730083]}},
{"type": "Feature","properties": {"id":7049,"name":"7049 - CITÉ SCOLAIRE INTERNATIONALE","partof1":0,"util1":0,"partof2":44.18963906,"util2":3.7214502503043,"partof3":2.28706367,"util3":0.19260609156882,"partof4":14.02154827,"util4":1.1808309691825,"partof5":38.58185247,"util5":3.2491879903507,"partof6":0.91989653,"util6":0.077469498385682},"geometry": {"type": "Point","coordinates":[4.823563,45.727951]}},
{"type": "Feature","properties": {"id":7052,"name":"7052 - PARC BLANDAN","partof1":34.03180322,"util1":5.0745398394395,"partof2":12.85776012,"util2":1.9172423968575,"partof3":17.24451282,"util3":2.571358524587,"partof4":19.86311344,"util4":2.9618224998242,"partof5":9.33897449,"util5":1.3925503095635,"partof6":6.6638359,"util6":0.99365586182526},"geometry": {"type": "Point","coordinates":[4.851214,45.745939]}},
{"type": "Feature","properties": {"id":7053,"name":"7053 - JAURÈS / THIBAUDIÈRE","partof1":30.98418914,"util1":11.248047365747,"partof2":9.83248937,"util2":3.5694432943604,"partof3":30.92431162,"util3":11.22631030566,"partof4":5.62691011,"util4":2.0427112406945,"partof5":8.9506101,"util5":3.2492987278846,"partof6":13.68148966,"util6":4.9667281281534},"geometry": {"type": "Point","coordinates":[4.845048,45.750344]}},
{"type": "Feature","properties": {"id":7055,"name":"7055 - SERVANT / JABOULAY","partof1":24.98124591,"util1":5.5733623144414,"partof2":9.5861608,"util2":2.1386902613015,"partof3":31.08694183,"util3":6.9355544031212,"partof4":4.54478564,"util4":1.0139501089916,"partof5":13.87929653,"util5":3.0964968084436,"partof6":15.92156929,"util6":3.5521316505728},"geometry": {"type": "Point","coordinates":[4.842051,45.746779]}},
{"type": "Feature","properties": {"id":7056,"name":"7056 - PLACE RASPAIL","partof1":31.82108532,"util1":18.502180500114,"partof2":0.70325727,"util2":0.40890475031596,"partof3":32.14010841,"util3":18.687674575364,"partof4":9.36232974,"util4":5.4436708556321,"partof5":5.29362077,"util5":3.0779442624521,"partof6":20.67959848,"util6":12.024029347181},"geometry": {"type": "Point","coordinates":[4.840745,45.755783]}},
{"type": "Feature","properties": {"id":7057,"name":"7057 - JAURES / BOLLIER","partof1":34.75020412,"util1":9.792678786082,"partof2":17.97922726,"util2":5.0665831133296,"partof3":17.82437229,"util3":5.02294466521,"partof4":6.87957705,"util4":1.9386789211974,"partof5":10.28811399,"util5":2.899211621053,"partof6":12.27850528,"util6":3.460107968432},"geometry": {"type": "Point","coordinates":[4.835486,45.734712]}},
{"type": "Feature","properties": {"id":7061,"name":"7061 - JAURES / UNIVERSITE","partof1":40.62836277,"util1":8.3402758114965,"partof2":14.01523308,"util2":2.8770765416105,"partof3":21.56674026,"util3":4.4272658276086,"partof4":4.59705728,"util4":0.9436935929094,"partof5":8.60347406,"util5":1.7661392609805,"partof6":10.58913255,"util6":2.1737594146104},"geometry": {"type": "Point","coordinates":[4.843249,45.748545]}},
{"type": "Feature","properties": {"id":7062,"name":"7062 - GARIBALDI / DOMER","partof1":22.32379101,"util1":3.7301891171883,"partof2":26.32502223,"util2":4.3987739980229,"partof3":22.39991699,"util3":3.742909371647,"partof4":9.0885548,"util4":1.5186501338748,"partof5":9.24769613,"util5":1.5452418206091,"partof6":10.61501884,"util6":1.7737143184139},"geometry": {"type": "Point","coordinates":[4.85162,45.747735]}},
{"type": "Feature","properties": {"id":7064,"name":"7064 - CROUS","partof1":28.74053183,"util1":6.6811085106472,"partof2":14.2661287,"util2":3.3163462122182,"partof3":26.09183007,"util3":6.065383513783,"partof4":6.81319085,"util4":1.583814372046,"partof5":12.42508278,"util5":2.8883712659869,"partof6":11.66323576,"util6":2.7112700683041},"geometry": {"type": "Point","coordinates":[4.847843,45.74541]}},
{"type": "Feature","properties": {"id":8001,"name":"8001 - UNIVERSITÉ LYON III","partof1":19.70661329,"util1":7.5087796854108,"partof2":0,"util2":0,"partof3":21.77829218,"util3":8.2981482154068,"partof4":0,"util4":0,"partof5":46.74106545,"util5":17.809674222588,"partof6":11.77402907,"util6":4.4862396696603},"geometry": {"type": "Point","coordinates":[4.861533,45.748535]}},
{"type": "Feature","properties": {"id":8002,"name":"8002- PLACE AMBROISE COURTOIS","partof1":29.77937821,"util1":10.736412445057,"partof2":21.17687712,"util2":7.6349373534693,"partof3":23.36739384,"util3":8.4246882612239,"partof4":6.76940784,"util4":2.4405867062274,"partof5":8.91819343,"util5":3.215292215105,"partof6":9.98874956,"util6":3.6012617298548},"geometry": {"type": "Point","coordinates":[4.871604,45.745296]}},
{"type": "Feature","properties": {"id":8003,"name":"8003 - CLAUDE BERNARD LYON I","partof1":12.56658497,"util1":0.48874381969482,"partof2":28.39375056,"util2":1.1042992298453,"partof3":10.20371896,"util3":0.39684644567385,"partof4":0,"util4":0,"partof5":40.87510242,"util5":1.5897281349595,"partof6":7.96084309,"util6":0.30961576825257},"geometry": {"type": "Point","coordinates":[4.886885,45.738135]}},
{"type": "Feature","properties": {"id":8004,"name":"8004 - MAIRIE DU 8ÈME","partof1":22.14563785,"util1":2.0352946844056,"partof2":31.11217275,"util2":2.8593640087176,"partof3":27.1838104,"util3":2.4983278957129,"partof4":0.52585774,"util4":0.048328951743223,"partof5":10.17030258,"util5":0.93470158412577,"partof6":8.86221867,"util6":0.81448214195787},"geometry": {"type": "Point","coordinates":[4.872803,45.735158]}},
{"type": "Feature","properties": {"id":8006,"name":"8006 - PLACE DU 8 MAI 1945","partof1":26.43020183,"util1":1.7097104561959,"partof2":18.98803695,"util2":1.2282935077401,"partof3":29.80804062,"util3":1.9282152688247,"partof4":6.14030015,"util4":0.39720224000409,"partof5":9.63196945,"util5":0.62307049292874,"partof6":9.00145101,"util6":0.58228366970938},"geometry": {"type": "Point","coordinates":[4.868157,45.729771]}},
{"type": "Feature","properties": {"id":8007,"name":"8007 - FRÈRES LUMIÈRE","partof1":21.94194373,"util1":4.2929402193893,"partof2":23.08799688,"util2":4.5171654622271,"partof3":38.10565383,"util3":7.4553693112098,"partof4":3.0055148,"util4":0.58802882386618,"partof5":8.23423648,"util5":1.6110279652492,"partof6":5.62465428,"util6":1.1004633352404},"geometry": {"type": "Point","coordinates":[4.866424,45.745018]}},
{"type": "Feature","properties": {"id":8008,"name":"8008 - BEAUVISAGE / PRESSENSÉ","partof1":13.77201962,"util1":0.4919690879798,"partof2":13.51377823,"util2":0.48274409523201,"partof3":40.86961641,"util3":1.4599592845564,"partof4":4.35940834,"util4":0.15572836841205,"partof5":20.64346722,"util5":0.73743343541391,"partof6":6.84171018,"util6":0.24440205651382},"geometry": {"type": "Point","coordinates":[4.86355,45.727881]}},
{"type": "Feature","properties": {"id":8009,"name":"8009 - JEAN XXIII / MERMOZ","partof1":17.9667663,"util1":3.4641206260327,"partof2":17.66542962,"util2":3.4060207659278,"partof3":36.39879216,"util3":7.0179466120253,"partof4":3.33970396,"util4":0.64391873192447,"partof5":15.08794826,"util5":2.9090639850968,"partof6":9.54135969,"util6":1.8396421676908},"geometry": {"type": "Point","coordinates":[4.869789,45.73648]}},
{"type": "Feature","properties": {"id":8010,"name":"8010 - PLACE MENDÈS FRANCE","partof1":20.35920714,"util1":5.1874126516535,"partof2":24.2627142,"util2":6.1820045220353,"partof3":28.53710464,"util3":7.2710954131535,"partof4":6.1671047,"util4":1.5713439489497,"partof5":4.16224545,"util5":1.0605169719108,"partof6":16.51162387,"util6":4.2070698516692},"geometry": {"type": "Point","coordinates":[4.85941,45.740052]}},
{"type": "Feature","properties": {"id":8011,"name":"8011 - PLACE LEBRET","partof1":15.89104601,"util1":1.4022486346705,"partof2":27.13837135,"util2":2.394728713816,"partof3":32.53731115,"util3":2.871138885837,"partof4":10.89336832,"util4":0.96124640530713,"partof5":2.25677331,"util5":0.19914090555882,"partof6":11.28312986,"util6":0.99563952121455},"geometry": {"type": "Point","coordinates":[4.853042,45.735653]}},
{"type": "Feature","properties": {"id":8015,"name":"8015 - BOULEVARD JEAN XXIII","partof1":24.12108924,"util1":3.259840954199,"partof2":34.38260728,"util2":4.646632256458,"partof3":12.42821519,"util3":1.6796092606289,"partof4":1.1199492,"util4":0.15135536511047,"partof5":16.12691527,"util5":2.1794695230788,"partof6":11.82122382,"util6":1.5975775038088},"geometry": {"type": "Point","coordinates":[4.874192,45.740324]}},
{"type": "Feature","properties": {"id":8020,"name":"8020 - MOULIN A VENT","partof1":21.13476339,"util1":2.7256445541964,"partof2":25.6116513,"util2":3.3030063597898,"partof3":21.07221746,"util3":2.7175783189448,"partof4":8.2623405,"util4":1.0655526618953,"partof5":10.95805439,"util5":1.4132053773937,"partof6":12.96097297,"util6":1.6715117525036},"geometry": {"type": "Point","coordinates":[4.854022,45.729743]}},
{"type": "Feature","properties": {"id":8021,"name":"8021 - PAUL SANTY","partof1":17.39068913,"util1":0.99840340090582,"partof2":28.7368821,"util2":1.6497909085486,"partof3":20.56838748,"util3":1.1808357827382,"partof4":7.17200985,"util4":0.41174670952042,"partof5":19.86333705,"util5":1.1403586779001,"partof6":6.26869439,"util6":0.35988716441481},"geometry": {"type": "Point","coordinates":[4.877279,45.728542]}},
{"type": "Feature","properties": {"id":8024,"name":"8024 - MERMOZ / MICHELET","partof1":19.33850214,"util1":1.7465792942281,"partof2":20.91161148,"util2":1.8886564923952,"partof3":20.57371415,"util3":1.8581389023626,"partof4":7.25896695,"util4":0.65560203580254,"partof5":19.07371695,"util5":1.7226649120839,"partof6":12.84348834,"util6":1.1599745749649},"geometry": {"type": "Point","coordinates":[4.878607,45.733317]}},
{"type": "Feature","properties": {"id":8025,"name":"8025 - DUMONT / JOUVET","partof1":29.38474263,"util1":5.3367269634093,"partof2":30.49690182,"util2":5.5387123954959,"partof3":17.25642833,"util3":3.1340361738214,"partof4":5.60523109,"util4":1.0179972739868,"partof5":9.47970193,"util5":1.7216615279544,"partof6":7.7769942,"util6":1.4124232825182},"geometry": {"type": "Point","coordinates":[4.860889,45.744447]}},
{"type": "Feature","properties": {"id":8029,"name":"8029 - ETATS UNIS LEVIGNE","partof1":14.71266006,"util1":0.81258908725035,"partof2":12.1699214,"util2":0.67215209771757,"partof3":33.31027981,"util3":1.8397468409164,"partof4":10.72276861,"util4":0.59222497645315,"partof5":17.90106103,"util5":0.98868639551647,"partof6":11.1833091,"util6":0.61766090543436},"geometry": {"type": "Point","coordinates":[4.865101,45.732366]}},
{"type": "Feature","properties": {"id":8030,"name":"8030 - LAËNNEC","partof1":14.59289845,"util1":1.8783728781943,"partof2":17.01667796,"util2":2.1903576226853,"partof3":16.2192787,"util3":2.0877177565746,"partof4":4.34178952,"util4":0.55886770576384,"partof5":36.85806348,"util5":4.7443067613203,"partof6":10.97129189,"util6":1.4122058887437},"geometry": {"type": "Point","coordinates":[4.879733,45.741425]}},
{"type": "Feature","properties": {"id":8034,"name":"8034 - BERTHELOT / VILLON","partof1":28.02971993,"util1":3.6778961600285,"partof2":20.06658269,"util2":2.6330197948733,"partof3":13.71640006,"util3":1.7997859142394,"partof4":5.79142332,"util4":0.75991674704283,"partof5":15.49239496,"util5":2.0328215934845,"partof6":16.90347903,"util6":2.2179758046394},"geometry": {"type": "Point","coordinates":[4.862727,45.738301]}},
{"type": "Feature","properties": {"id":8035,"name":"8035 - SANS SOUCI","partof1":25.75490049,"util1":8.2837462078242,"partof2":27.21286881,"util2":8.7526837425127,"partof3":21.66179768,"util3":6.967250153268,"partof4":0.60632894,"util4":0.19501822805991,"partof5":13.99148726,"util5":4.5001893747113,"partof6":10.77261682,"util6":3.4648793834659},"geometry": {"type": "Point","coordinates":[4.865386,45.747251]}},
{"type": "Feature","properties": {"id":8037,"name":"8037 - CAZENEUVE","partof1":16.88434801,"util1":1.1218787722176,"partof2":24.33459065,"util2":1.6169093804908,"partof3":26.1990586,"util3":1.7407937622475,"partof4":6.5157834,"util4":0.43294055989004,"partof5":15.91422191,"util5":1.057418842979,"partof6":10.15199744,"util6":0.67454842892351},"geometry": {"type": "Point","coordinates":[4.862906,45.734027]}},
{"type": "Feature","properties": {"id":8038,"name":"8038 - ALBERT THOMAS / VILLON","partof1":31.78579048,"util1":5.4538301423894,"partof2":29.02861577,"util2":4.9807520054561,"partof3":11.41107673,"util3":1.9579212373639,"partof4":3.13366824,"util4":0.5376771835929,"partof5":17.74900186,"util5":3.0453872588854,"partof6":6.89184692,"util6":1.1825083441823},"geometry": {"type": "Point","coordinates":[4.867501,45.746691]}},
{"type": "Feature","properties": {"id":8039,"name":"8039 - PIERRE DELORE","partof1":37.99020412,"util1":3.6217663371824,"partof2":20.61819814,"util2":1.9656197613715,"partof3":0,"util3":0,"partof4":7.84803758,"util4":0.74818651224943,"partof5":10.53134509,"util5":1.0039975308302,"partof6":23.01221507,"util6":2.1938514892225},"geometry": {"type": "Point","coordinates":[4.852412,45.738617]}},
{"type": "Feature","properties": {"id":8040,"name":"8040 - AMBROISE PARÉ","partof1":32.791338,"util1":1.7221208546647,"partof2":13.99190639,"util2":0.73482069535359,"partof3":28.44004232,"util3":1.4936014500786,"partof4":6.33888775,"util4":0.33290287787748,"partof5":6.71239224,"util5":0.35251841999229,"partof6":11.7254333,"util6":0.61579107311539},"geometry": {"type": "Point","coordinates":[4.883667,45.736289]}},
{"type": "Feature","properties": {"id":8041,"name":"8041 - ETATS UNIS / VIVIANI","partof1":24.23993864,"util1":1.6084371042458,"partof2":12.9667456,"util2":0.86040625160413,"partof3":32.7173276,"util3":2.1709528413066,"partof4":4.41299796,"util4":0.29282374700868,"partof5":9.97982167,"util5":0.66220941010537,"partof6":15.68316853,"util6":1.0406540441553},"geometry": {"type": "Point","coordinates":[4.870745,45.724775]}},
{"type": "Feature","properties": {"id":8042,"name":"8042 - FRANCIS DE PRESSENSÉ","partof1":25.3604107,"util1":2.1580718864632,"partof2":27.6947644,"util2":2.3567162677638,"partof3":24.32167928,"util3":2.0696799001659,"partof4":4.5122454,"util4":0.38397445758096,"partof5":9.23802803,"util5":0.78612009930508,"partof6":8.87287218,"util6":0.75504676286016},"geometry": {"type": "Point","coordinates":[4.860139,45.731361]}},
{"type": "Feature","properties": {"id":8051,"name":"8051 - HÔPITAL ST JEAN DE DIEU","partof1":9.76334582,"util1":0.47901034048698,"partof2":25.5427055,"util2":1.2531790109749,"partof3":19.67777959,"util3":0.96543337450212,"partof4":6.53305928,"util4":0.32052566894885,"partof5":28.68391764,"util5":1.4072935045577,"partof6":9.79919217,"util6":0.48076903803138},"geometry": {"type": "Point","coordinates":[4.854165,45.724172]}},
{"type": "Feature","properties": {"id":8052,"name":"8052 - CLINIQUE MONPLAISIR","partof1":29.57514575,"util1":8.0155605539266,"partof2":11.43306226,"util2":3.0986289513668,"partof3":18.59982325,"util3":5.0409898504966,"partof4":2.89355046,"util4":0.78422027482222,"partof5":29.79003657,"util5":8.0738010236357,"partof6":7.70838172,"util6":2.0891528640883},"geometry": {"type": "Point","coordinates":[4.859612,45.747032]}},
{"type": "Feature","properties": {"id":8053,"name":"8053 - LUMIERE / TROUILHET","partof1":34.49475867,"util1":7.2079981595157,"partof2":21.17745407,"util2":4.4252244643922,"partof3":28.36632037,"util3":5.9274044203421,"partof4":1.82258933,"util4":0.3808468602976,"partof5":9.85809391,"util5":2.0599396980681,"partof6":4.28078366,"util6":0.89450925103587},"geometry": {"type": "Point","coordinates":[4.870083,45.743569]}},
{"type": "Feature","properties": {"id":8054,"name":"8054 - MARTINIERE MONPLAISIR","partof1":23.53681837,"util1":4.1931290137025,"partof2":31.00534572,"util2":5.5236613833974,"partof3":17.02631648,"util3":3.0332707040713,"partof4":3.01904457,"util4":0.53784853930229,"partof5":16.89097114,"util5":3.0091586740126,"partof6":8.52150371,"util6":1.5181221134084},"geometry": {"type": "Point","coordinates":[4.868244,45.740865]}},
{"type": "Feature","properties": {"id":8056,"name":"8056 - DELORE / AUDIBERT ET LAVIROTTE","partof1":12.88252798,"util1":1.2501509759416,"partof2":36.50034229,"util2":3.5420795209518,"partof3":30.46829397,"util3":2.956715289189,"partof4":5.24738974,"util4":0.50921910783282,"partof5":4.48480604,"util5":0.43521618245418,"partof6":10.41663998,"util6":1.0108553738246},"geometry": {"type": "Point","coordinates":[4.856888,45.73586]}},
{"type": "Feature","properties": {"id":8057,"name":"8057 - VIENNE / MONTAGNY","partof1":12.8638673,"util1":1.1186426541506,"partof2":29.84079304,"util2":2.5949571112433,"partof3":26.19104332,"util3":2.2775746617394,"partof4":6.55148292,"util4":0.56971733859935,"partof5":13.61648308,"util5":1.184090166478,"partof6":10.93633033,"util6":0.95102392629773},"geometry": {"type": "Point","coordinates":[4.853406,45.732483]}},
{"type": "Feature","properties": {"id":8058,"name":"8058 - LONGEFER / KRUGER","partof1":31.11571725,"util1":2.6507089059472,"partof2":28.45047534,"util2":2.4236602922007,"partof3":23.90269693,"util3":2.036240756382,"partof4":2.25970683,"util4":0.19250158918033,"partof5":5.76653776,"util5":0.491244115445,"partof6":8.50486589,"util6":0.72451885255867},"geometry": {"type": "Point","coordinates":[4.878117,45.738671]}},
{"type": "Feature","properties": {"id":8059,"name":"8059 - LAENNEC / PINEL","partof1":14.8488938,"util1":0.5229254014651,"partof2":22.41769586,"util2":0.78947177920506,"partof3":20.95461531,"util3":0.73794726874055,"partof4":9.64802547,"util4":0.33976925555527,"partof5":18.90273986,"util5":0.66568748913005,"partof6":13.22802969,"util6":0.46584431334781},